[{"Number":1,"RegionNumber":"14A","RegionName":"Loch Maree to Loch Broom","Height":913.96,"Latitude":57.745922,"Longitude":-5.259066,"LandrangerMaps":["19"],"ExplorerMaps":["435N","435S"],"Id":"9KYM6wr7","Name":"Beinn a' Chlaidheimh"},{"Number":2,"RegionNumber":"13A","RegionName":"Loch Torridon to Loch Maree","Height":913.7,"Latitude":57.588177,"Longitude":-5.522871,"LandrangerMaps":["19","24"],"ExplorerMaps":["433"],"Id":"3Xra8bYD","Name":"Beinn Dearg"},{"Number":3,"RegionNumber":"12A","RegionName":"Kyle of Lochalsh to Garve","Height":913.43,"Latitude":57.482307,"Longitude":-5.192321,"LandrangerMaps":["25"],"ExplorerMaps":["429"],"Id":"gejb34YK","Name":"Sgurr nan Ceannaichean"},{"Number":4,"RegionNumber":"10B","RegionName":"Knoydart to Glen Kingie","Height":913.32,"Latitude":57.057215,"Longitude":-5.471305,"LandrangerMaps":["33"],"ExplorerMaps":["398E","413S"],"Id":"9xrkZyY2","Name":"Sgurr a' Choire-bheithe"},{"Number":5,"RegionNumber":"6A","RegionName":"Glen Tromie to Glen Tilt","Height":912.44,"Latitude":56.916127,"Longitude":-3.86034,"LandrangerMaps":["43"],"ExplorerMaps":["OL51E","394E"],"Id":"MRmKxRje","Name":"Beinn Bhreac"},{"Number":6,"RegionNumber":"6A","RegionName":"Glen Tromie to Glen Tilt","Height":911.7,"Latitude":56.948652,"Longitude":-3.93864,"LandrangerMaps":["43"],"ExplorerMaps":["OL51E","394E"],"Id":"K2r5ezrR","Name":"Leathad an Taobhain"},{"Number":7,"RegionNumber":"4B","RegionName":"Loch Treig to Loch Ericht","Height":911.4,"Latitude":56.928372,"Longitude":-4.304853,"LandrangerMaps":["42"],"ExplorerMaps":["OL50","393"],"Id":"QgmEnbjw","Name":"The Fara"},{"Number":8,"RegionNumber":"16B","RegionName":"Durness to Loch Shin","Height":911.05,"Latitude":58.41206,"Longitude":-4.885699,"LandrangerMaps":["9"],"ExplorerMaps":["445"],"Id":"LvmLx2mx","Name":"Foinaven [Foinne Bhein] - Ganu Mor"},{"Number":9,"RegionNumber":"2B","RegionName":"Glen Lyon to Glen Dochart & Loch Tay","Height":909.6,"Latitude":56.540091,"Longitude":-4.373237,"LandrangerMaps":["51"],"ExplorerMaps":["OL48W","378W"],"Id":"83mWXqjx","Name":"Beinn nan Oighreag"},{"Number":10,"RegionNumber":"10D","RegionName":"Mallaig to Fort William","Height":909.0,"Latitude":56.923006,"Longitude":-5.375537,"LandrangerMaps":["40"],"ExplorerMaps":["398E"],"Id":"1dYlz6mN","Name":"Streap"},{"Number":11,"RegionNumber":"2A","RegionName":"Loch Rannoch to Glen Lyon","Height":908.2,"Latitude":56.570153,"Longitude":-4.562,"LandrangerMaps":["51"],"ExplorerMaps":["OL48W","378W"],"Id":"3Rr06Rjk","Name":"Meall Buidhe"},{"Number":12,"RegionNumber":"3B","RegionName":"Loch Linnhe to Loch Etive","Height":907.0,"Latitude":56.627844,"Longitude":-5.041952,"LandrangerMaps":["41"],"ExplorerMaps":["384"],"Id":"DlrweajQ","Name":"Beinn Maol Chaluim"},{"Number":13,"RegionNumber":"13B","RegionName":"Applecross to Achnasheen","Height":907.0,"Latitude":57.485385,"Longitude":-5.379188,"LandrangerMaps":["25"],"ExplorerMaps":["429"],"Id":"2Vjxz0rQ","Name":"Fuar Tholl"},{"Number":14,"RegionNumber":"4A","RegionName":"Fort William to Loch Treig & Loch Leven","Height":906.4,"Latitude":56.738929,"Longitude":-4.730754,"LandrangerMaps":["41"],"ExplorerMaps":["385W"],"Id":"ZGjOzemy","Name":"Leum Uilleim"},{"Number":15,"RegionNumber":"14A","RegionName":"Loch Maree to Loch Broom","Height":906.28,"Latitude":57.765796,"Longitude":-5.309938,"LandrangerMaps":["19"],"ExplorerMaps":["435N","435S"],"Id":"1Vj2e9m2","Name":"Beinn Dearg Mor"},{"Number":16,"RegionNumber":"10C","RegionName":"Loch Arkaig to Glen Moriston","Height":904.0,"Latitude":57.032239,"Longitude":-4.900715,"LandrangerMaps":["34"],"ExplorerMaps":["400"],"Id":"1Xr3RAY8","Name":"Ben Tee"},{"Number":17,"RegionNumber":"6B","RegionName":"Pitlochry to Braemar & Blairgowrie","Height":903.0,"Latitude":56.810737,"Longitude":-3.644008,"LandrangerMaps":["43"],"ExplorerMaps":["OL51E","394E"],"Id":"Z1jP7gm2","Name":"Ben Vuirich"},{"Number":18,"RegionNumber":"13B","RegionName":"Applecross to Achnasheen","Height":903.0,"Latitude":57.492846,"Longitude":-5.518149,"LandrangerMaps":["24"],"ExplorerMaps":["428N"],"Id":"K2r5edrR","Name":"Beinn Damh"},{"Number":19,"RegionNumber":"19C","RegionName":"Loch Fyne to Bute and the Firth of Clyde","Height":901.7,"Latitude":56.230085,"Longitude":-4.876243,"LandrangerMaps":["56"],"ExplorerMaps":["OL37N","OL39S","363N","364S"],"Id":"QgmEnKjw","Name":"Beinn an Lochain"},{"Number":20,"RegionNumber":"2B","RegionName":"Glen Lyon to Glen Dochart & Loch Tay","Height":901.0,"Latitude":56.467652,"Longitude":-4.700459,"LandrangerMaps":["50"],"ExplorerMaps":["377E"],"Id":"LvmLxQmx","Name":"Beinn Odhar"},{"Number":21,"RegionNumber":"10B","RegionName":"Knoydart to Glen Kingie","Height":901.0,"Latitude":57.028875,"Longitude":-5.317877,"LandrangerMaps":["33","40"],"ExplorerMaps":["398E","399"],"Id":"83mWX9jx","Name":"Sgurr an Fhuarain"},{"Number":22,"RegionNumber":"6A","RegionName":"Glen Tromie to Glen Tilt","Height":900.8,"Latitude":56.860948,"Longitude":-3.838457,"LandrangerMaps":["43"],"ExplorerMaps":["OL51E","394E"],"Id":"1dYlznmN","Name":"Beinn Mheadhonach"},{"Number":23,"RegionNumber":"8B","RegionName":"Cairngorms","Height":900.0,"Latitude":57.073355,"Longitude":-3.331871,"LandrangerMaps":["36","43"],"ExplorerMaps":["OL58S","404S"],"Id":"3Rr06Wjk","Name":"Culardoch"},{"Number":24,"RegionNumber":"12B","RegionName":"Killilan to Inverness","Height":899.0,"Latitude":57.341161,"Longitude":-5.229309,"LandrangerMaps":["25"],"ExplorerMaps":["414N","429"],"Id":"Dlrwe7jQ","Name":"Aonach Buidhe"},{"Number":25,"RegionNumber":"10B","RegionName":"Knoydart to Glen Kingie","Height":898.0,"Latitude":57.087947,"Longitude":-5.422658,"LandrangerMaps":["33"],"ExplorerMaps":["413S"],"Id":"2VjxzXrQ","Name":"Sgurr nan Eugallt"},{"Number":26,"RegionNumber":"3C","RegionName":"Glen Etive to Glen Lochy","Height":897.0,"Latitude":56.408911,"Longitude":-5.09044,"LandrangerMaps":["50"],"ExplorerMaps":["360N","377W"],"Id":"ZGjOR1my","Name":"Beinn a' Bhuiridh"},{"Number":27,"RegionNumber":"7B","RegionName":"Braemar to Montrose","Height":896.0,"Latitude":56.858703,"Longitude":-3.029169,"LandrangerMaps":["44"],"ExplorerMaps":["OL53S","388S"],"Id":"1Vj2w8Y2","Name":"Ben Tirran"},{"Number":28,"RegionNumber":"9B","RegionName":"Glen Albyn and the Monadh Liath","Height":896.0,"Latitude":57.051993,"Longitude":-4.539681,"LandrangerMaps":["34"],"ExplorerMaps":["OL55","401"],"Id":"1Xr35Zj8","Name":"Gairbeinn"},{"Number":29,"RegionNumber":"13A","RegionName":"Loch Torridon to Loch Maree","Height":896.0,"Latitude":57.596383,"Longitude":-5.393975,"LandrangerMaps":["19"],"ExplorerMaps":["433"],"Id":"Z1jP6Pr2","Name":"Ruadh-stac Beag"},{"Number":30,"RegionNumber":"13B","RegionName":"Applecross to Achnasheen","Height":896.0,"Latitude":57.442348,"Longitude":-5.661686,"LandrangerMaps":["24"],"ExplorerMaps":["428N","428S"],"Id":"NVmVD1Yw","Name":"Beinn Bhan"},{"Number":31,"RegionNumber":"8B","RegionName":"Cairngorms","Height":895.0,"Latitude":57.124246,"Longitude":-3.558416,"LandrangerMaps":["36"],"ExplorerMaps":["OL57S","OL58S","403S","404S"],"Id":"aBjZezmM","Name":"Creag Mhor"},{"Number":32,"RegionNumber":"5A","RegionName":"Loch Ericht to Glen Tromie & Glen Garry","Height":892.0,"Latitude":56.729024,"Longitude":-4.151523,"LandrangerMaps":["42"],"ExplorerMaps":["OL49W","386W"],"Id":"b1mDz3Y8","Name":"Beinn a' Chuallaich"},{"Number":33,"RegionNumber":"13B","RegionName":"Applecross to Achnasheen","Height":892.0,"Latitude":57.475016,"Longitude":-5.468323,"LandrangerMaps":["25"],"ExplorerMaps":["429"],"Id":"AdrJ22rW","Name":"An Ruadh-stac"},{"Number":34,"RegionNumber":"15A","RegionName":"Loch Broom to Strath Oykel","Height":890.0,"Latitude":57.779101,"Longitude":-4.986727,"LandrangerMaps":["20"],"ExplorerMaps":["436N"],"Id":"D6reEory","Name":"Beinn Enaiglair"},{"Number":35,"RegionNumber":"1A","RegionName":"Loch Tay to Perth","Height":888.0,"Latitude":56.506918,"Longitude":-4.041691,"LandrangerMaps":["51","52"],"ExplorerMaps":["OL48E","378E"],"Id":"MEmqd0rJ","Name":"Creagan na Beinne"},{"Number":36,"RegionNumber":"11B","RegionName":"Glen Affric to Glen Moriston","Height":888.0,"Latitude":57.216381,"Longitude":-5.026852,"LandrangerMaps":["34"],"ExplorerMaps":["415"],"Id":"nNrG24Y4","Name":"Aonach Shasuinn"},{"Number":37,"RegionNumber":"18B","RegionName":"Sunart and Ardgour","Height":888.0,"Latitude":56.754656,"Longitude":-5.453786,"LandrangerMaps":["40"],"ExplorerMaps":["391"],"Id":"l8rvlZjG","Name":"Sgurr Dhomhnuill"},{"Number":38,"RegionNumber":"10B","RegionName":"Knoydart to Glen Kingie","Height":887.0,"Latitude":57.030736,"Longitude":-5.463143,"LandrangerMaps":["33","40"],"ExplorerMaps":["398E","413S"],"Id":"RVY4E0rJ","Name":"Ben Aden [Beinn an Aodainn]"},{"Number":39,"RegionNumber":"13A","RegionName":"Loch Torridon to Loch Maree","Height":887.0,"Latitude":57.615191,"Longitude":-5.390202,"LandrangerMaps":["19"],"ExplorerMaps":["433"],"Id":"EVjzODYb","Name":"Meall a' Ghiubhais [Meall a' Ghiuthais]"},{"Number":40,"RegionNumber":"2B","RegionName":"Glen Lyon to Glen Dochart & Loch Tay","Height":886.0,"Latitude":56.490614,"Longitude":-4.686104,"LandrangerMaps":["50"],"ExplorerMaps":["377E"],"Id":"JEjQoara","Name":"Beinn a' Chaisteil"},{"Number":41,"RegionNumber":"10A","RegionName":"Glen Shiel to Loch Hourn and Loch Quoich","Height":885.5,"Latitude":57.127133,"Longitude":-5.366446,"LandrangerMaps":["33"],"ExplorerMaps":["414S"],"Id":"p5moz4r4","Name":"Buidhe Bheinn"},{"Number":42,"RegionNumber":"18B","RegionName":"Sunart and Ardgour","Height":885.0,"Latitude":56.704449,"Longitude":-5.425008,"LandrangerMaps":["40"],"ExplorerMaps":["391"],"Id":"9RmRKRj8","Name":"Garbh Bheinn"},{"Number":43,"RegionNumber":"1D","RegionName":"Inveraray to Crianlarich","Height":884.0,"Latitude":56.213037,"Longitude":-4.808042,"LandrangerMaps":["56"],"ExplorerMaps":["OL39S","364S"],"Id":"3ArXA9m1","Name":"The Cobbler [Ben Arthur]"},{"Number":44,"RegionNumber":"2B","RegionName":"Glen Lyon to Glen Dochart & Loch Tay","Height":884.0,"Latitude":56.476037,"Longitude":-4.639096,"LandrangerMaps":["50"],"ExplorerMaps":["OL48W","377E","378W"],"Id":"RKjAzyYx","Name":"Cam Chreag"},{"Number":45,"RegionNumber":"3C","RegionName":"Glen Etive to Glen Lochy","Height":883.0,"Latitude":56.595405,"Longitude":-4.988114,"LandrangerMaps":["50"],"ExplorerMaps":["384"],"Id":"07Yy7Vm5","Name":"Stob Dubh"},{"Number":46,"RegionNumber":"18A","RegionName":"Moidart and Ardnamurchan","Height":882.0,"Latitude":56.842222,"Longitude":-5.532394,"LandrangerMaps":["40"],"ExplorerMaps":["391"],"Id":"kXr10WYL","Name":"Beinn Odhar Bheag"},{"Number":47,"RegionNumber":"18A","RegionName":"Moidart and Ardnamurchan","Height":882.0,"Latitude":56.837626,"Longitude":-5.680425,"LandrangerMaps":["40"],"ExplorerMaps":["390E"],"Id":"GojN25j2","Name":"Rois-Bheinn"},{"Number":48,"RegionNumber":"1D","RegionName":"Inveraray to Crianlarich","Height":880.0,"Latitude":56.423887,"Longitude":-4.789867,"LandrangerMaps":["50"],"ExplorerMaps":["OL39N","364N","377E"],"Id":"04m80NmL","Name":"Beinn Chuirn"},{"Number":49,"RegionNumber":"10B","RegionName":"Knoydart to Glen Kingie","Height":880.0,"Latitude":56.998469,"Longitude":-5.273676,"LandrangerMaps":["33"],"ExplorerMaps":["399"],"Id":"azY9wamn","Name":"Sgurr Mhurlagain"},{"Number":50,"RegionNumber":"1A","RegionName":"Loch Tay to Perth","Height":879.0,"Latitude":56.465278,"Longitude":-4.098107,"LandrangerMaps":["51","52"],"ExplorerMaps":["OL48E","378E"],"Id":"qajgWojk","Name":"Creag Uchdag"},{"Number":51,"RegionNumber":"1C","RegionName":"Loch Lomond to Strathyre","Height":879.0,"Latitude":56.258659,"Longitude":-4.322375,"LandrangerMaps":["57"],"ExplorerMaps":["OL46S","365S"],"Id":"A3j6WbYO","Name":"Ben Ledi"},{"Number":52,"RegionNumber":"3B","RegionName":"Loch Linnhe to Loch Etive","Height":879.0,"Latitude":56.615678,"Longitude":-5.213625,"LandrangerMaps":["41"],"ExplorerMaps":["384"],"Id":"3Pr7lDmk","Name":"Fraochaidh"},{"Number":53,"RegionNumber":"12A","RegionName":"Kyle of Lochalsh to Garve","Height":879.0,"Latitude":57.558383,"Longitude":-4.902303,"LandrangerMaps":["25"],"ExplorerMaps":["430"],"Id":"1grnVarK","Name":"Sgurr a' Mhuilinn"},{"Number":54,"RegionNumber":"12B","RegionName":"Killilan to Inverness","Height":879.0,"Latitude":57.31878,"Longitude":-5.361278,"LandrangerMaps":["25"],"ExplorerMaps":["414N","429"],"Id":"RVYpV6m6","Name":"Sguman Coinntich"},{"Number":55,"RegionNumber":"9B","RegionName":"Glen Albyn and the Monadh Liath","Height":878.0,"Latitude":57.137355,"Longitude":-4.107357,"LandrangerMaps":["35"],"ExplorerMaps":["OL56","402"],"Id":"8AjBO8Y5","Name":"Carn an Fhreiceadain"},{"Number":56,"RegionNumber":"6A","RegionName":"Glen Tromie to Glen Tilt","Height":875.0,"Latitude":56.90042,"Longitude":-4.078177,"LandrangerMaps":["42"],"ExplorerMaps":["OL51W","394W"],"Id":"PEmd5njW","Name":"A' Chaoirnich [Maol Creag an Loch]"},{"Number":57,"RegionNumber":"13A","RegionName":"Loch Torridon to Loch Maree","Height":875.0,"Latitude":57.628246,"Longitude":-5.568633,"LandrangerMaps":["19","24"],"ExplorerMaps":["433"],"Id":"9KYM2Rr7","Name":"Baosbheinn"},{"Number":58,"RegionNumber":"18A","RegionName":"Moidart and Ardnamurchan","Height":874.0,"Latitude":56.837554,"Longitude":-5.657223,"LandrangerMaps":["40"],"ExplorerMaps":["390E"],"Id":"3Xra4pYD","Name":"Sgurr na Ba Glaise"},{"Number":59,"RegionNumber":"20C","RegionName":"Arran and Holy Island","Height":874.0,"Latitude":55.625831,"Longitude":-5.191881,"LandrangerMaps":["62","69"],"ExplorerMaps":["361N"],"Id":"gejbqkmK","Name":"Goatfell [Goat Fell]"},{"Number":60,"RegionNumber":"16B","RegionName":"Durness to Loch Shin","Height":873.0,"Latitude":58.265889,"Longitude":-4.68391,"LandrangerMaps":["16"],"ExplorerMaps":["440N","447S"],"Id":"9xrkNDY2","Name":"Ben Hee"},{"Number":61,"RegionNumber":"21A","RegionName":"Tomintoul to Banff","Height":872.0,"Latitude":57.122639,"Longitude":-3.03088,"LandrangerMaps":["37"],"ExplorerMaps":["OL59W","405W"],"Id":"MRmK3yme","Name":"Morven"},{"Number":62,"RegionNumber":"13B","RegionName":"Applecross to Achnasheen","Height":871.0,"Latitude":57.522771,"Longitude":-5.393259,"LandrangerMaps":["25"],"ExplorerMaps":["429"],"Id":"K2r5LdYR","Name":"Sgorr nan Lochan Uaine"},{"Number":63,"RegionNumber":"1C","RegionName":"Loch Lomond to Strathyre","Height":869.0,"Latitude":56.309674,"Longitude":-4.560146,"LandrangerMaps":["56"],"ExplorerMaps":["OL46N","365N"],"Id":"QgmEdKrw","Name":"Stob a' Choin"},{"Number":64,"RegionNumber":"4B","RegionName":"Loch Treig to Loch Ericht","Height":868.0,"Latitude":56.743606,"Longitude":-4.538978,"LandrangerMaps":["42"],"ExplorerMaps":["385E","385W"],"Id":"LvmL7Qrx","Name":"Beinn Pharlagain [Ben Pharlagain - Meall na Meoig]"},{"Number":65,"RegionNumber":"12B","RegionName":"Killilan to Inverness","Height":868.0,"Latitude":57.332915,"Longitude":-5.288039,"LandrangerMaps":["25"],"ExplorerMaps":["414N","429"],"Id":"83mW39mx","Name":"Faochaig"},{"Number":66,"RegionNumber":"3A","RegionName":"Loch Leven to Rannoch Station","Height":867.0,"Latitude":56.696584,"Longitude":-4.991428,"LandrangerMaps":["41"],"ExplorerMaps":["384"],"Id":"1dYldnYN","Name":"Garbh Bheinn"},{"Number":67,"RegionNumber":"10D","RegionName":"Mallaig to Fort William","Height":867.0,"Latitude":56.980354,"Longitude":-5.475517,"LandrangerMaps":["33","40"],"ExplorerMaps":["398E"],"Id":"3Rr0lWrk","Name":"Bidein a' Chabair"},{"Number":68,"RegionNumber":"7A","RegionName":"Braemar to Montrose","Height":865.0,"Latitude":56.964274,"Longitude":-3.186547,"LandrangerMaps":["44"],"ExplorerMaps":["OL53N","388N"],"Id":"Dlrw07mQ","Name":"Conachcraig"},{"Number":69,"RegionNumber":"11B","RegionName":"Glen Affric to Glen Moriston","Height":865.0,"Latitude":57.222594,"Longitude":-5.087627,"LandrangerMaps":["34"],"ExplorerMaps":["414N"],"Id":"2VjxwXmQ","Name":"Carn a' Choire Ghairbh"},{"Number":70,"RegionNumber":"3C","RegionName":"Glen Etive to Glen Lochy","Height":864.0,"Latitude":56.610061,"Longitude":-4.899477,"LandrangerMaps":["41"],"ExplorerMaps":["384"],"Id":"ZGjOD1Yy","Name":"Beinn Mhic Chasgaig"},{"Number":71,"RegionNumber":"8B","RegionName":"Cairngorms","Height":863.0,"Latitude":57.066716,"Longitude":-3.391294,"LandrangerMaps":["36","43"],"ExplorerMaps":["OL58S","404S"],"Id":"1Vj2P8r2","Name":"Creag an Dail Bheag"},{"Number":72,"RegionNumber":"12A","RegionName":"Kyle of Lochalsh to Garve","Height":863.0,"Latitude":57.438689,"Longitude":-5.241955,"LandrangerMaps":["25"],"ExplorerMaps":["429"],"Id":"1Xr3PZm8","Name":"Beinn Tharsuinn"},{"Number":73,"RegionNumber":"12A","RegionName":"Kyle of Lochalsh to Garve","Height":863.0,"Latitude":57.457045,"Longitude":-5.243648,"LandrangerMaps":["25"],"ExplorerMaps":["429"],"Id":"Z1jPkPm2","Name":"Sgurr na Feartaig"},{"Number":74,"RegionNumber":"2A","RegionName":"Loch Rannoch to Glen Lyon","Height":862.0,"Latitude":56.611086,"Longitude":-4.385627,"LandrangerMaps":["51"],"ExplorerMaps":["OL48W","378W"],"Id":"NVmV21mw","Name":"Cam Chreag"},{"Number":75,"RegionNumber":"9B","RegionName":"Glen Albyn and the Monadh Liath","Height":862.0,"Latitude":57.067424,"Longitude":-4.450362,"LandrangerMaps":["35"],"ExplorerMaps":["OL55","401"],"Id":"aBjZZzjM","Name":"Meall na h-Aisre"},{"Number":76,"RegionNumber":"12A","RegionName":"Kyle of Lochalsh to Garve","Height":862.0,"Latitude":57.451935,"Longitude":-4.733922,"LandrangerMaps":["26"],"ExplorerMaps":["431"],"Id":"b1mDW3r8","Name":"Beinn a' Bhathaich Ard [Beinn a' Bha' ach Ard]"},{"Number":77,"RegionNumber":"6B","RegionName":"Pitlochry to Braemar & Blairgowrie","Height":859.0,"Latitude":56.980852,"Longitude":-3.429599,"LandrangerMaps":["43"],"ExplorerMaps":["OL52N","OL58S","387N","404S"],"Id":"AdrJB2rW","Name":"Morrone"},{"Number":78,"RegionNumber":"14A","RegionName":"Loch Maree to Loch Broom","Height":859.0,"Latitude":57.703824,"Longitude":-5.38922,"LandrangerMaps":["19"],"ExplorerMaps":["433"],"Id":"D6reoojy","Name":"Beinn Lair"},{"Number":79,"RegionNumber":"20C","RegionName":"Arran and Holy Island","Height":859.0,"Latitude":55.649881,"Longitude":-5.229295,"LandrangerMaps":["62","69"],"ExplorerMaps":["361N"],"Id":"MEmq60jJ","Name":"Caisteal Abhail"},{"Number":80,"RegionNumber":"1D","RegionName":"Inveraray to Crianlarich","Height":858.0,"Latitude":56.231249,"Longitude":-4.836341,"LandrangerMaps":["56"],"ExplorerMaps":["OL37N","OL39S","363N","364S"],"Id":"nNrGw4r4","Name":"Beinn Luibhean"},{"Number":81,"RegionNumber":"10B","RegionName":"Knoydart to Glen Kingie","Height":858.0,"Latitude":56.993482,"Longitude":-5.316898,"LandrangerMaps":["33","40"],"ExplorerMaps":["398E","399"],"Id":"l8rv1ZYG","Name":"Fraoch Bheinn"},{"Number":82,"RegionNumber":"3A","RegionName":"Loch Leven to Rannoch Station","Height":857.0,"Latitude":56.668905,"Longitude":-4.863529,"LandrangerMaps":["41"],"ExplorerMaps":["384"],"Id":"RVY4A0rJ","Name":"Beinn a' Chrulaiste"},{"Number":83,"RegionNumber":"4A","RegionName":"Fort William to Loch Treig & Loch Leven","Height":857.0,"Latitude":56.84684,"Longitude":-4.821936,"LandrangerMaps":["41"],"ExplorerMaps":["392"],"Id":"EVjzRDjb","Name":"Cruach Innse"},{"Number":84,"RegionNumber":"6A","RegionName":"Glen Tromie to Glen Tilt","Height":857.0,"Latitude":56.996795,"Longitude":-3.938665,"LandrangerMaps":["35","43"],"ExplorerMaps":["OL56","402"],"Id":"JEjQ2aYa","Name":"Carn Dearg Mor"},{"Number":85,"RegionNumber":"14A","RegionName":"Loch Maree to Loch Broom","Height":856.0,"Latitude":57.751174,"Longitude":-5.392091,"LandrangerMaps":["19"],"ExplorerMaps":["435N"],"Id":"p5mow4m4","Name":"Beinn a' Chaisgein Mor"},{"Number":86,"RegionNumber":"5A","RegionName":"Loch Ericht to Glen Tromie & Glen Garry","Height":855.0,"Latitude":56.793293,"Longitude":-4.396092,"LandrangerMaps":["42"],"ExplorerMaps":["OL50","385E","393"],"Id":"9RmRDRY8","Name":"Stob an Aonaich Mhoir"},{"Number":87,"RegionNumber":"10B","RegionName":"Knoydart to Glen Kingie","Height":855.0,"Latitude":57.010102,"Longitude":-5.589145,"LandrangerMaps":["33","40"],"ExplorerMaps":["398E"],"Id":"3ArXo9Y1","Name":"Beinn Bhuidhe"},{"Number":88,"RegionNumber":"13A","RegionName":"Loch Torridon to Loch Maree","Height":855.0,"Latitude":57.622829,"Longitude":-5.509791,"LandrangerMaps":["19"],"ExplorerMaps":["433"],"Id":"RKjA5yjx","Name":"Beinn an Eoin"},{"Number":89,"RegionNumber":"18C","RegionName":"Morvern and Kingairloch","Height":853.0,"Latitude":56.661979,"Longitude":-5.476201,"LandrangerMaps":["49"],"ExplorerMaps":["376","383E"],"Id":"07Yy4Vj5","Name":"Creach Bheinn"},{"Number":90,"RegionNumber":"1C","RegionName":"Loch Lomond to Strathyre","Height":852.0,"Latitude":56.380403,"Longitude":-4.362598,"LandrangerMaps":["51"],"ExplorerMaps":["OL46N","365N"],"Id":"kXr1PWYL","Name":"Meall an t-Seallaidh"},{"Number":91,"RegionNumber":"2B","RegionName":"Glen Lyon to Glen Dochart & Loch Tay","Height":849.0,"Latitude":56.44413,"Longitude":-4.565842,"LandrangerMaps":["51"],"ExplorerMaps":["OL48W","378W"],"Id":"GojNe5m2","Name":"Beinn nan Imirean"},{"Number":92,"RegionNumber":"12A","RegionName":"Kyle of Lochalsh to Garve","Height":849.0,"Latitude":57.495759,"Longitude":-4.968274,"LandrangerMaps":["25"],"ExplorerMaps":["430"],"Id":"04m8DNmL","Name":"Bac an Eich"},{"Number":93,"RegionNumber":"16F","RegionName":"Lochinver to Ullapool","Height":849.0,"Latitude":58.058124,"Longitude":-5.116768,"LandrangerMaps":["15"],"ExplorerMaps":["439E"],"Id":"azY9zarn","Name":"Cul Mor"},{"Number":94,"RegionNumber":"18B","RegionName":"Sunart and Ardgour","Height":849.0,"Latitude":56.818945,"Longitude":-5.482559,"LandrangerMaps":["40"],"ExplorerMaps":["391"],"Id":"qajgQork","Name":"Sgurr Ghiubhsachain"},{"Number":95,"RegionNumber":"16F","RegionName":"Lochinver to Ullapool","Height":847.0,"Latitude":58.120906,"Longitude":-5.052849,"LandrangerMaps":["15"],"ExplorerMaps":["442E"],"Id":"A3j6ybmO","Name":"Canisp"},{"Number":96,"RegionNumber":"19C","RegionName":"Loch Fyne to Bute and the Firth of Clyde","Height":847.0,"Latitude":56.19792,"Longitude":-4.87327,"LandrangerMaps":["56"],"ExplorerMaps":["OL37N","OL39S","363N","364S"],"Id":"3Pr7PDmk","Name":"Ben Donich"},{"Number":97,"RegionNumber":"18B","RegionName":"Sunart and Ardgour","Height":845.0,"Latitude":56.727189,"Longitude":-5.652605,"LandrangerMaps":["40"],"ExplorerMaps":["390E"],"Id":"1grnKamK","Name":"Beinn Resipol"},{"Number":98,"RegionNumber":"27B","RegionName":"Carrick and Galloway","Height":843.0,"Latitude":55.139271,"Longitude":-4.468411,"LandrangerMaps":["77"],"ExplorerMaps":["318"],"Id":"RVYpx6Y6","Name":"Merrick"},{"Number":99,"RegionNumber":"6B","RegionName":"Pitlochry to Braemar & Blairgowrie","Height":842.0,"Latitude":56.748956,"Longitude":-3.717273,"LandrangerMaps":["43"],"ExplorerMaps":["OL49E","386E"],"Id":"8AjBE8m5","Name":"Ben Vrackie"},{"Number":100,"RegionNumber":"15A","RegionName":"Loch Broom to Strath Oykel","Height":842.0,"Latitude":57.846772,"Longitude":-4.801042,"LandrangerMaps":["20"],"ExplorerMaps":["437N"],"Id":"PEmdQnjW","Name":"Carn Ban"},{"Number":101,"RegionNumber":"5A","RegionName":"Loch Ericht to Glen Tromie & Glen Garry","Height":841.7,"Latitude":56.759525,"Longitude":-4.3121,"LandrangerMaps":["42"],"ExplorerMaps":["385E"],"Id":"9KYMbRr7","Name":"Beinn Mholach"},{"Number":102,"RegionNumber":"11A","RegionName":"Loch Duich to Cannich","Height":841.0,"Latitude":57.248593,"Longitude":-5.415477,"LandrangerMaps":["25","33"],"ExplorerMaps":["413N","414N"],"Id":"3XraKpjD","Name":"Sgurr an Airgid"},{"Number":103,"RegionNumber":"21A","RegionName":"Tomintoul to Banff","Height":841.0,"Latitude":57.403275,"Longitude":-3.241496,"LandrangerMaps":["28"],"ExplorerMaps":["424S"],"Id":"gejbQkmK","Name":"Ben Rinnes"},{"Number":104,"RegionNumber":"3B","RegionName":"Loch Linnhe to Loch Etive","Height":840.0,"Latitude":56.547978,"Longitude":-5.114433,"LandrangerMaps":["50"],"ExplorerMaps":["377W"],"Id":"9xrkLDm2","Name":"Beinn Trilleachan"},{"Number":105,"RegionNumber":"3C","RegionName":"Glen Etive to Glen Lochy","Height":840.0,"Latitude":56.458886,"Longitude":-4.791931,"LandrangerMaps":["50"],"ExplorerMaps":["377E"],"Id":"MRmKByre","Name":"Beinn Udlaidh"},{"Number":106,"RegionNumber":"28B","RegionName":"The River Tweed to the English Border","Height":840.0,"Latitude":55.498143,"Longitude":-3.352731,"LandrangerMaps":["72"],"ExplorerMaps":["330","336"],"Id":"K2r5PdYR","Name":"Broad Law"},{"Number":107,"RegionNumber":"11A","RegionName":"Loch Duich to Cannich","Height":839.0,"Latitude":57.245255,"Longitude":-5.256941,"LandrangerMaps":["25","33"],"ExplorerMaps":["414N"],"Id":"QgmElKrw","Name":"Sgurr Gaorsaic"},{"Number":108,"RegionNumber":"15B","RegionName":"Loch Vaich to Moray Firth","Height":839.0,"Latitude":57.813803,"Longitude":-4.554142,"LandrangerMaps":["20"],"ExplorerMaps":["437N"],"Id":"LvmLDQmx","Name":"Carn Chuinneag"},{"Number":109,"RegionNumber":"10C","RegionName":"Loch Arkaig to Glen Moriston","Height":838.0,"Latitude":57.007047,"Longitude":-4.989603,"LandrangerMaps":["34"],"ExplorerMaps":["399","400"],"Id":"83mWz9rx","Name":"Meall na h-Eilde"},{"Number":110,"RegionNumber":"12A","RegionName":"Kyle of Lochalsh to Garve","Height":838.0,"Latitude":57.546909,"Longitude":-4.902962,"LandrangerMaps":["25"],"ExplorerMaps":["430"],"Id":"1dYlWnjN","Name":"Meallan nan Uan"},{"Number":111,"RegionNumber":"2A","RegionName":"Loch Rannoch to Glen Lyon","Height":837.0,"Latitude":56.574164,"Longitude":-4.514792,"LandrangerMaps":["51"],"ExplorerMaps":["OL48W","378W"],"Id":"3Rr0MWmk","Name":"Sron a' Choire Chnapanich [Sron a' Choire Chnapanaich]"},{"Number":112,"RegionNumber":"10B","RegionName":"Knoydart to Glen Kingie","Height":835.0,"Latitude":56.997429,"Longitude":-5.37999,"LandrangerMaps":["33","40"],"ExplorerMaps":["398E"],"Id":"Dlrw17jQ","Name":"Sgurr Cos na Breachd-laoidh"},{"Number":113,"RegionNumber":"7A","RegionName":"Braemar to Montrose","Height":834.0,"Latitude":56.940515,"Longitude":-3.391006,"LandrangerMaps":["43"],"ExplorerMaps":["OL52N","387N"],"Id":"2VjxdXjQ","Name":"Creag nan Gabhar"},{"Number":114,"RegionNumber":"9C","RegionName":"Loch Lochy to Loch Laggan","Height":834.0,"Latitude":56.959813,"Longitude":-4.723327,"LandrangerMaps":["34","41"],"ExplorerMaps":["400"],"Id":"ZGjOx1Yy","Name":"Carn Dearg"},{"Number":115,"RegionNumber":"2A","RegionName":"Loch Rannoch to Glen Lyon","Height":830.0,"Latitude":56.618921,"Longitude":-4.268971,"LandrangerMaps":["51"],"ExplorerMaps":["OL48E","OL49W","378E","386W"],"Id":"1Vj2M8m2","Name":"Beinn Dearg"},{"Number":116,"RegionNumber":"8B","RegionName":"Cairngorms","Height":829.0,"Latitude":57.124384,"Longitude":-3.288211,"LandrangerMaps":["36"],"ExplorerMaps":["OL58S","404S"],"Id":"1Xr3DZm8","Name":"Brown Cow Hill"},{"Number":117,"RegionNumber":"10D","RegionName":"Mallaig to Fort William","Height":829.0,"Latitude":56.962009,"Longitude":-5.450735,"LandrangerMaps":["33","40"],"ExplorerMaps":["398E"],"Id":"Z1jPOPm2","Name":"Carn Mor"},{"Number":118,"RegionNumber":"5B","RegionName":"Loch Ericht to Glen Tromie & Glen Garry","Height":827.4,"Latitude":56.894797,"Longitude":-4.108635,"LandrangerMaps":["42"],"ExplorerMaps":["OL51W","394W"],"Id":"K2r5DGYR","Name":"An Dun"},{"Number":119,"RegionNumber":"20C","RegionName":"Arran and Holy Island","Height":826.0,"Latitude":55.622154,"Longitude":-5.241201,"LandrangerMaps":["62","69"],"ExplorerMaps":["361N"],"Id":"QgmEoPYw","Name":"Beinn Tarsuinn"},{"Number":120,"RegionNumber":"9B","RegionName":"Glen Albyn and the Monadh Liath","Height":824.0,"Latitude":57.186945,"Longitude":-3.926922,"LandrangerMaps":["35"],"ExplorerMaps":["417"],"Id":"LvmLlxmx","Name":"Geal-charn Mor"},{"Number":121,"RegionNumber":"1C","RegionName":"Loch Lomond to Strathyre","Height":821.0,"Latitude":56.293295,"Longitude":-4.368435,"LandrangerMaps":["57"],"ExplorerMaps":["OL46N","365N"],"Id":"83mWw3mx","Name":"Benvane"},{"Number":122,"RegionNumber":"8B","RegionName":"Cairngorms","Height":821.0,"Latitude":57.196016,"Longitude":-3.506737,"LandrangerMaps":["36"],"ExplorerMaps":["OL58N","404N"],"Id":"1dYl5WrN","Name":"Geal Charn"},{"Number":123,"RegionNumber":"28B","RegionName":"The River Tweed to the English Border","Height":821.0,"Latitude":55.422578,"Longitude":-3.323634,"LandrangerMaps":["79"],"ExplorerMaps":["330"],"Id":"3Rr0DDrk","Name":"White Coomb"},{"Number":124,"RegionNumber":"14A","RegionName":"Loch Maree to Loch Broom","Height":820.0,"Latitude":57.775977,"Longitude":-5.331425,"LandrangerMaps":["19"],"ExplorerMaps":["435N"],"Id":"DlrwLWmQ","Name":"Beinn Dearg Bheag"},{"Number":125,"RegionNumber":"2B","RegionName":"Glen Lyon to Glen Dochart & Loch Tay","Height":818.0,"Latitude":56.458902,"Longitude":-4.664919,"LandrangerMaps":["50"],"ExplorerMaps":["377E"],"Id":"2VjxWbmQ","Name":"Beinn Chaorach"},{"Number":126,"RegionNumber":"8B","RegionName":"Cairngorms","Height":818.0,"Latitude":57.027417,"Longitude":-3.439163,"LandrangerMaps":["36","43"],"ExplorerMaps":["OL58S","404S"],"Id":"ZGjOxGYy","Name":"Carn na Drochaide"},{"Number":127,"RegionNumber":"12B","RegionName":"Killilan to Inverness","Height":818.0,"Latitude":57.384228,"Longitude":-4.860012,"LandrangerMaps":["25"],"ExplorerMaps":["430"],"Id":"1Vj2MQm2","Name":"Sgorr na Diollaid"},{"Number":128,"RegionNumber":"1D","RegionName":"Inveraray to Crianlarich","Height":817.0,"Latitude":56.2577,"Longitude":-4.857968,"LandrangerMaps":["50","56"],"ExplorerMaps":["OL37N","OL39S","363N","364S"],"Id":"1Xr3DXm8","Name":"Stob Coire Creagach [Binnein an Fhidhleir]"},{"Number":129,"RegionNumber":"9B","RegionName":"Glen Albyn and the Monadh Liath","Height":817.0,"Latitude":57.031129,"Longitude":-4.720434,"LandrangerMaps":["34"],"ExplorerMaps":["400"],"Id":"Z1jPOlm2","Name":"Carn Dearg"},{"Number":130,"RegionNumber":"9B","RegionName":"Glen Albyn and the Monadh Liath","Height":817.0,"Latitude":57.094268,"Longitude":-4.614836,"LandrangerMaps":["34"],"ExplorerMaps":["OL55","401"],"Id":"NVmV0RYw","Name":"Carn a' Chuilinn"},{"Number":131,"RegionNumber":"16E","RegionName":"Scourie to Lairg","Height":815.0,"Latitude":58.097384,"Longitude":-4.908545,"LandrangerMaps":["15"],"ExplorerMaps":["439E","442E"],"Id":"aBjZvMjM","Name":"Breabag"},{"Number":132,"RegionNumber":"12A","RegionName":"Kyle of Lochalsh to Garve","Height":814.0,"Latitude":57.46181,"Longitude":-5.050778,"LandrangerMaps":["25"],"ExplorerMaps":["430"],"Id":"b1mDZQY8","Name":"An Sithean [An Sidhean]"},{"Number":133,"RegionNumber":"18A","RegionName":"Moidart and Ardnamurchan","Height":814.0,"Latitude":56.850883,"Longitude":-5.67052,"LandrangerMaps":["40"],"ExplorerMaps":["390E","398W"],"Id":"AdrJLWjW","Name":"An Stac"},{"Number":134,"RegionNumber":"27B","RegionName":"Carrick and Galloway","Height":814.0,"Latitude":55.155082,"Longitude":-4.359126,"LandrangerMaps":["77"],"ExplorerMaps":["318"],"Id":"D6reRbmy","Name":"Corserine"},{"Number":135,"RegionNumber":"1B","RegionName":"Strathyre to Strathallan","Height":813.0,"Latitude":56.313957,"Longitude":-4.262199,"LandrangerMaps":["57"],"ExplorerMaps":["OL46N","365N"],"Id":"MEmq0DrJ","Name":"Beinn Each"},{"Number":136,"RegionNumber":"8A","RegionName":"Cairngorms","Height":813.0,"Latitude":57.003153,"Longitude":-3.636334,"LandrangerMaps":["43"],"ExplorerMaps":["OL52N","OL57S","387N","403S"],"Id":"nNrGKNr4","Name":"Sgor Mor"},{"Number":137,"RegionNumber":"17D","RegionName":"Canna, Rhum and Eigg","Height":812.0,"Latitude":56.974433,"Longitude":-6.291504,"LandrangerMaps":["39"],"ExplorerMaps":["397"],"Id":"l8rvEeYG","Name":"Askival"},{"Number":138,"RegionNumber":"9B","RegionName":"Glen Albyn and the Monadh Liath","Height":811.0,"Latitude":57.198957,"Longitude":-4.320534,"LandrangerMaps":["35"],"ExplorerMaps":["417"],"Id":"RVY4D4YJ","Name":"Carn na Saobhaidhe"},{"Number":139,"RegionNumber":"3B","RegionName":"Loch Linnhe to Loch Etive","Height":810.0,"Latitude":56.530492,"Longitude":-5.215023,"LandrangerMaps":["50"],"ExplorerMaps":["377W"],"Id":"EVjz0Lrb","Name":"Creach Bheinn"},{"Number":140,"RegionNumber":"8A","RegionName":"Cairngorms","Height":810.0,"Latitude":57.18355,"Longitude":-3.671106,"LandrangerMaps":["36"],"ExplorerMaps":["OL57N","403N"],"Id":"JEjQ5Dja","Name":"Meall a' Bhuachaille"},{"Number":141,"RegionNumber":"1B","RegionName":"Strathyre to Strathallan","Height":809.0,"Latitude":56.341247,"Longitude":-4.184316,"LandrangerMaps":["57"],"ExplorerMaps":["OL47W","368W"],"Id":"p5moWBm4","Name":"Meall na Fearna"},{"Number":142,"RegionNumber":"4A","RegionName":"Fort William to Loch Treig & Loch Leven","Height":809.0,"Latitude":56.833314,"Longitude":-4.80398,"LandrangerMaps":["41"],"ExplorerMaps":["392"],"Id":"9RmREXr8","Name":"Sgurr Innse"},{"Number":143,"RegionNumber":"16E","RegionName":"Scourie to Lairg","Height":809.0,"Latitude":58.215146,"Longitude":-5.049887,"LandrangerMaps":["15"],"ExplorerMaps":["442E"],"Id":"3ArXxwr1","Name":"Quinag - Sail Gharbh"},{"Number":144,"RegionNumber":"1C","RegionName":"Loch Lomond to Strathyre","Height":808.6,"Latitude":56.399888,"Longitude":-4.358071,"LandrangerMaps":["51"],"ExplorerMaps":["OL46N","365N"],"Id":"RKjAX9mx","Name":"Creag Mac Ranaich"},{"Number":145,"RegionNumber":"17B","RegionName":"Minginish and the Cuillin Hills","Height":808.0,"Latitude":57.233105,"Longitude":-6.092474,"LandrangerMaps":["32"],"ExplorerMaps":["411"],"Id":"07Yylwj5","Name":"Garbh-bheinn"},{"Number":146,"RegionNumber":"28B","RegionName":"The River Tweed to the English Border","Height":808.0,"Latitude":55.408052,"Longitude":-3.401411,"LandrangerMaps":["78"],"ExplorerMaps":["330"],"Id":"kXr1QGrL","Name":"Hart Fell"},{"Number":147,"RegionNumber":"7A","RegionName":"Braemar to Montrose","Height":807.0,"Latitude":56.820186,"Longitude":-3.351546,"LandrangerMaps":["43"],"ExplorerMaps":["OL52N","OL53S","387N","388S"],"Id":"GojNwAY2","Name":"Monamenach"},{"Number":148,"RegionNumber":"14A","RegionName":"Loch Maree to Loch Broom","Height":807.0,"Latitude":57.725649,"Longitude":-5.199021,"LandrangerMaps":["19"],"ExplorerMaps":["435S"],"Id":"04m8d9mL","Name":"Creag Rainich"},{"Number":149,"RegionNumber":"2B","RegionName":"Glen Lyon to Glen Dochart & Loch Tay","Height":806.0,"Latitude":56.507156,"Longitude":-4.664648,"LandrangerMaps":["50"],"ExplorerMaps":["377E"],"Id":"azY9d2jn","Name":"Beinn nam Fuaran"},{"Number":150,"RegionNumber":"2B","RegionName":"Glen Lyon to Glen Dochart & Loch Tay","Height":806.0,"Latitude":56.524497,"Longitude":-4.503808,"LandrangerMaps":["51"],"ExplorerMaps":["OL48W","378W"],"Id":"qajgNMmk","Name":"Meall nan Subh"},{"Number":151,"RegionNumber":"6B","RegionName":"Pitlochry to Braemar & Blairgowrie","Height":806.0,"Latitude":56.83265,"Longitude":-3.475886,"LandrangerMaps":["43"],"ExplorerMaps":["OL52N","387N"],"Id":"A3j6d9rO","Name":"Ben Gulabin"},{"Number":152,"RegionNumber":"9C","RegionName":"Loch Lochy to Loch Laggan","Height":805.0,"Latitude":56.970146,"Longitude":-4.803152,"LandrangerMaps":["34"],"ExplorerMaps":["400"],"Id":"3Pr7MEjk","Name":"Beinn Iaruinn"},{"Number":153,"RegionNumber":"10A","RegionName":"Glen Shiel to Loch Hourn and Loch Quoich","Height":805.0,"Latitude":57.148629,"Longitude":-5.548692,"LandrangerMaps":["33"],"ExplorerMaps":["413S"],"Id":"1grnLJjK","Name":"Beinn na h-Eaglaise"},{"Number":154,"RegionNumber":"10C","RegionName":"Loch Arkaig to Glen Moriston","Height":804.0,"Latitude":57.002612,"Longitude":-5.037526,"LandrangerMaps":["34"],"ExplorerMaps":["399"],"Id":"RVYplMY6","Name":"Geal Charn"},{"Number":155,"RegionNumber":"21A","RegionName":"Tomintoul to Banff","Height":804.0,"Latitude":57.249877,"Longitude":-3.218483,"LandrangerMaps":["37"],"ExplorerMaps":["OL62W","420W"],"Id":"8AjBnzj5","Name":"Carn Mor"},{"Number":156,"RegionNumber":"5A","RegionName":"Loch Ericht to Glen Tromie & Glen Garry","Height":803.0,"Latitude":56.838121,"Longitude":-4.25515,"LandrangerMaps":["42"],"ExplorerMaps":["OL50","393"],"Id":"PEmdoJrW","Name":"The Sow of Atholl [Meall an Dobharchain]"},{"Number":157,"RegionNumber":"3C","RegionName":"Glen Etive to Glen Lochy","Height":802.0,"Latitude":56.466716,"Longitude":-4.756524,"LandrangerMaps":["50"],"ExplorerMaps":["377E"],"Id":"9KYM0Xj7","Name":"Beinn Bhreac-liath"},{"Number":158,"RegionNumber":"16B","RegionName":"Durness to Loch Shin","Height":801.0,"Latitude":58.310074,"Longitude":-4.805668,"LandrangerMaps":["15"],"ExplorerMaps":["445"],"Id":"3Xrae1rD","Name":"Meallan Liath Coire Mhic Dhughaill"},{"Number":159,"RegionNumber":"16B","RegionName":"Durness to Loch Shin","Height":801.0,"Latitude":58.457428,"Longitude":-4.828701,"LandrangerMaps":["9"],"ExplorerMaps":["446"],"Id":"gejbN8jK","Name":"Cranstackie"},{"Number":160,"RegionNumber":"20C","RegionName":"Arran and Holy Island","Height":799.0,"Latitude":55.639154,"Longitude":-5.222514,"LandrangerMaps":["62","69"],"ExplorerMaps":["361N"],"Id":"9xrkdem2","Name":"Cir Mhor"},{"Number":161,"RegionNumber":"24B","RegionName":"Harris and Nearby Islands","Height":799.0,"Latitude":57.963689,"Longitude":-6.812548,"LandrangerMaps":["13","14"],"ExplorerMaps":["456"],"Id":"MRmK4Xje","Name":"An Cliseam [Clisham]"},{"Number":162,"RegionNumber":"11A","RegionName":"Loch Duich to Cannich","Height":798.0,"Latitude":57.179265,"Longitude":-5.189109,"LandrangerMaps":["33"],"ExplorerMaps":["414N","414S"],"Id":"K2r5JGmR","Name":"Am Bathach"},{"Number":163,"RegionNumber":"12A","RegionName":"Kyle of Lochalsh to Garve","Height":797.0,"Latitude":57.391571,"Longitude":-5.267939,"LandrangerMaps":["25"],"ExplorerMaps":["429"],"Id":"QgmE4Prw","Name":"Beinn Dronaig"},{"Number":164,"RegionNumber":"27C","RegionName":"The Glenkens to Annandale","Height":797.0,"Latitude":55.256044,"Longitude":-4.212722,"LandrangerMaps":["77"],"ExplorerMaps":["328S"],"Id":"LvmLgxrx","Name":"Cairnsmore of Carsphairn"},{"Number":165,"RegionNumber":"3C","RegionName":"Glen Etive to Glen Lochy","Height":796.0,"Latitude":56.473069,"Longitude":-4.909741,"LandrangerMaps":["50"],"ExplorerMaps":["377E"],"Id":"83mWA3Yx","Name":"Beinn Mhic-Mhonaidh"},{"Number":166,"RegionNumber":"4A","RegionName":"Fort William to Loch Treig & Loch Leven","Height":796.0,"Latitude":56.716426,"Longitude":-5.081585,"LandrangerMaps":["41"],"ExplorerMaps":["384","392"],"Id":"1dYlNWmN","Name":"Mam na Gualainn"},{"Number":167,"RegionNumber":"10B","RegionName":"Knoydart to Glen Kingie","Height":796.0,"Latitude":57.047637,"Longitude":-5.643923,"LandrangerMaps":["33"],"ExplorerMaps":["398W","413S"],"Id":"3Rr0QDmk","Name":"Sgurr Coire Choinnichean"},{"Number":168,"RegionNumber":"10D","RegionName":"Mallaig to Fort William","Height":796.0,"Latitude":56.898697,"Longitude":-5.474509,"LandrangerMaps":["40"],"ExplorerMaps":["398E"],"Id":"DlrwWWrQ","Name":"Sgurr an Utha"},{"Number":169,"RegionNumber":"10D","RegionName":"Mallaig to Fort William","Height":796.0,"Latitude":56.925261,"Longitude":-5.056843,"LandrangerMaps":["34","41"],"ExplorerMaps":["399"],"Id":"2VjxlbjQ","Name":"Beinn Bhan"},{"Number":170,"RegionNumber":"4A","RegionName":"Fort William to Loch Treig & Loch Leven","Height":792.0,"Latitude":56.736083,"Longitude":-4.847886,"LandrangerMaps":["41"],"ExplorerMaps":["392"],"Id":"ZGjObGmy","Name":"Glas Bheinn"},{"Number":171,"RegionNumber":"8B","RegionName":"Cairngorms","Height":792.0,"Latitude":57.190245,"Longitude":-3.279515,"LandrangerMaps":["36"],"ExplorerMaps":["OL58N","404N"],"Id":"1Vj2RQj2","Name":"Carn Ealasaid"},{"Number":172,"RegionNumber":"13B","RegionName":"Applecross to Achnasheen","Height":792.0,"Latitude":57.412544,"Longitude":-5.670353,"LandrangerMaps":["24"],"ExplorerMaps":["428S"],"Id":"1Xr3zXY8","Name":"Sgurr a' Chaorachain"},{"Number":173,"RegionNumber":"14A","RegionName":"Loch Maree to Loch Broom","Height":792.0,"Latitude":57.727548,"Longitude":-5.477608,"LandrangerMaps":["19"],"ExplorerMaps":["433","434","435N"],"Id":"Z1jPblr2","Name":"Beinn Airigh Charr"},{"Number":174,"RegionNumber":"16E","RegionName":"Scourie to Lairg","Height":792.0,"Latitude":58.222023,"Longitude":-4.861613,"LandrangerMaps":["15"],"ExplorerMaps":["442E"],"Id":"NVmV4RYw","Name":"Beinn Leoid"},{"Number":175,"RegionNumber":"1A","RegionName":"Loch Tay to Perth","Height":789.0,"Latitude":56.454346,"Longitude":-3.934667,"LandrangerMaps":["52"],"ExplorerMaps":["OL47W","368W","379W"],"Id":"aBjZXMrM","Name":"Auchnafree Hill"},{"Number":176,"RegionNumber":"10A","RegionName":"Glen Shiel to Loch Hourn and Loch Quoich","Height":789.0,"Latitude":57.122035,"Longitude":-5.089277,"LandrangerMaps":["34"],"ExplorerMaps":["414S"],"Id":"b1mDaQj8","Name":"Druim nan Cnamh [Beinn Loinne]"},{"Number":177,"RegionNumber":"10C","RegionName":"Loch Arkaig to Glen Moriston","Height":789.0,"Latitude":57.127923,"Longitude":-4.900431,"LandrangerMaps":["34"],"ExplorerMaps":["415"],"Id":"AdrJdWjW","Name":"Meall Dubh"},{"Number":178,"RegionNumber":"2A","RegionName":"Loch Rannoch to Glen Lyon","Height":787.0,"Latitude":56.665895,"Longitude":-3.947405,"LandrangerMaps":["52"],"ExplorerMaps":["OL49E","386E"],"Id":"D6reabry","Name":"Meall Tairneachan"},{"Number":179,"RegionNumber":"15B","RegionName":"Loch Vaich to Moray Firth","Height":787.0,"Latitude":57.780902,"Longitude":-4.742992,"LandrangerMaps":["20"],"ExplorerMaps":["437N"],"Id":"MEmqJDjJ","Name":"Beinn a' Chaisteil"},{"Number":180,"RegionNumber":"16B","RegionName":"Durness to Loch Shin","Height":787.0,"Latitude":58.371062,"Longitude":-4.903644,"LandrangerMaps":["9"],"ExplorerMaps":["445"],"Id":"nNrG4Nm4","Name":"Arkle"},{"Number":181,"RegionNumber":"19C","RegionName":"Loch Fyne to Bute and the Firth of Clyde","Height":787.0,"Latitude":56.187751,"Longitude":-4.828551,"LandrangerMaps":["56"],"ExplorerMaps":["OL37N","OL39S","363N","364S"],"Id":"l8rvLejG","Name":"The Brack"},{"Number":182,"RegionNumber":"18B","RegionName":"Sunart and Ardgour","Height":786.0,"Latitude":56.772398,"Longitude":-5.460755,"LandrangerMaps":["40"],"ExplorerMaps":["391"],"Id":"RVY4J4mJ","Name":"Carn na Nathrach"},{"Number":183,"RegionNumber":"10B","RegionName":"Knoydart to Glen Kingie","Height":785.0,"Latitude":57.098269,"Longitude":-5.640339,"LandrangerMaps":["33"],"ExplorerMaps":["413S"],"Id":"EVjzwLYb","Name":"Beinn na Caillich"},{"Number":184,"RegionNumber":"20A","RegionName":"Jura, Scarba and Colonsay","Height":785.0,"Latitude":55.902396,"Longitude":-6.004137,"LandrangerMaps":["60","61"],"ExplorerMaps":["355S"],"Id":"JEjQZDYa","Name":"Beinn an Oir"},{"Number":185,"RegionNumber":"18A","RegionName":"Moidart and Ardnamurchan","Height":783.0,"Latitude":56.849855,"Longitude":-5.563058,"LandrangerMaps":["40"],"ExplorerMaps":["391"],"Id":"p5mobBr4","Name":"Beinn Mhic Cedidh"},{"Number":186,"RegionNumber":"2A","RegionName":"Loch Rannoch to Glen Lyon","Height":782.3,"Latitude":56.675063,"Longitude":-3.894208,"LandrangerMaps":["52"],"ExplorerMaps":["OL49E","386E"],"Id":"9RmRZXm8","Name":"Farragon Hill"},{"Number":187,"RegionNumber":"13B","RegionName":"Applecross to Achnasheen","Height":782.0,"Latitude":57.54691,"Longitude":-5.378786,"LandrangerMaps":["25"],"ExplorerMaps":["429","433"],"Id":"3ArX4wr1","Name":"Sgurr Dubh"},{"Number":188,"RegionNumber":"17D","RegionName":"Canna, Rhum and Eigg","Height":781.0,"Latitude":56.96563,"Longitude":-6.314678,"LandrangerMaps":["39"],"ExplorerMaps":["397"],"Id":"RKjAo9rx","Name":"Ainshval"},{"Number":189,"RegionNumber":"21A","RegionName":"Tomintoul to Banff","Height":781.0,"Latitude":57.344617,"Longitude":-3.196412,"LandrangerMaps":["37"],"ExplorerMaps":["OL62W","420W"],"Id":"07Yy0wj5","Name":"Corryhabbie Hill"},{"Number":190,"RegionNumber":"10A","RegionName":"Glen Shiel to Loch Hourn and Loch Quoich","Height":779.0,"Latitude":57.19958,"Longitude":-5.448675,"LandrangerMaps":["33"],"ExplorerMaps":["413N"],"Id":"kXr1JGmL","Name":"Sgurr Mhic Bharraich"},{"Number":191,"RegionNumber":"19C","RegionName":"Loch Fyne to Bute and the Firth of Clyde","Height":779.0,"Latitude":56.141833,"Longitude":-4.971465,"LandrangerMaps":["56"],"ExplorerMaps":["OL37N","363N"],"Id":"GojNZAj2","Name":"Beinn Bheula"},{"Number":192,"RegionNumber":"2B","RegionName":"Glen Lyon to Glen Dochart & Loch Tay","Height":778.9,"Latitude":56.562874,"Longitude":-4.302495,"LandrangerMaps":["51"],"ExplorerMaps":["OL48E","378E"],"Id":"04m8a9jL","Name":"Meall nam Maigheach"},{"Number":193,"RegionNumber":"7B","RegionName":"Braemar to Montrose","Height":778.0,"Latitude":56.949266,"Longitude":-2.741962,"LandrangerMaps":["44"],"ExplorerMaps":["OL54","395"],"Id":"azY9o2mn","Name":"Mount Battock"},{"Number":194,"RegionNumber":"5A","RegionName":"Loch Ericht to Glen Tromie & Glen Garry","Height":777.1,"Latitude":56.804039,"Longitude":-4.227991,"LandrangerMaps":["42"],"ExplorerMaps":["OL49W","OL51W","386W","394W"],"Id":"qajgeMrk","Name":"Meall na Leitreach"},{"Number":195,"RegionNumber":"16B","RegionName":"Durness to Loch Shin","Height":777.0,"Latitude":58.361671,"Longitude":-4.817612,"LandrangerMaps":["9"],"ExplorerMaps":["445"],"Id":"A3j6J9jO","Name":"Meall Horn"},{"Number":196,"RegionNumber":"16E","RegionName":"Scourie to Lairg","Height":776.0,"Latitude":58.225604,"Longitude":-5.069542,"LandrangerMaps":["15"],"ExplorerMaps":["442W"],"Id":"3Pr7JEYk","Name":"Quinag - Sail Gorm [Sail Ghorm]"},{"Number":197,"RegionNumber":"16E","RegionName":"Scourie to Lairg","Height":776.0,"Latitude":58.192672,"Longitude":-4.970555,"LandrangerMaps":["15"],"ExplorerMaps":["442E"],"Id":"1grnNJrK","Name":"Glas Bheinn"},{"Number":198,"RegionNumber":"17B","RegionName":"Minginish and the Cuillin Hills","Height":775.0,"Latitude":57.292709,"Longitude":-6.128399,"LandrangerMaps":["32"],"ExplorerMaps":["411"],"Id":"RVYpQMr6","Name":"Glamaig - Sgurr Mhairi"},{"Number":199,"RegionNumber":"18B","RegionName":"Sunart and Ardgour","Height":775.0,"Latitude":56.825832,"Longitude":-5.45052,"LandrangerMaps":["40"],"ExplorerMaps":["391"],"Id":"8AjB4zr5","Name":"Sgorr Craobh a' Chaorainn"},{"Number":200,"RegionNumber":"27B","RegionName":"Carrick and Galloway","Height":774.1,"Latitude":55.183647,"Longitude":-4.50248,"LandrangerMaps":["77"],"ExplorerMaps":["318"],"Id":"PEmd8JmW","Name":"Shalloch on Minnoch"},{"Number":201,"RegionNumber":"10A","RegionName":"Glen Shiel to Loch Hourn and Loch Quoich","Height":774.0,"Latitude":57.150469,"Longitude":-5.520434,"LandrangerMaps":["33"],"ExplorerMaps":["413S"],"Id":"9KYMeXY7","Name":"Beinn nan Caorach"},{"Number":202,"RegionNumber":"10D","RegionName":"Mallaig to Fort William","Height":774.0,"Latitude":56.918009,"Longitude":-5.239026,"LandrangerMaps":["41"],"ExplorerMaps":["399"],"Id":"3XraA1rD","Name":"Meall a' Phubuill"},{"Number":203,"RegionNumber":"16B","RegionName":"Durness to Loch Shin","Height":773.0,"Latitude":58.473042,"Longitude":-4.810504,"LandrangerMaps":["9"],"ExplorerMaps":["446"],"Id":"gejbA8mK","Name":"Beinn Spionnaidh"},{"Number":204,"RegionNumber":"3B","RegionName":"Loch Linnhe to Loch Etive","Height":772.0,"Latitude":56.628471,"Longitude":-5.107497,"LandrangerMaps":["41"],"ExplorerMaps":["384"],"Id":"9xrk8em2","Name":"Meall Lighiche"},{"Number":205,"RegionNumber":"1C","RegionName":"Loch Lomond to Strathyre","Height":771.0,"Latitude":56.31467,"Longitude":-4.468143,"LandrangerMaps":["57"],"ExplorerMaps":["OL46N","365N"],"Id":"MRmKZXre","Name":"Beinn Stacach [Ceann na Baintighearna] [Stob Fear-tomhais] [Beinn Stacath]"},{"Number":206,"RegionNumber":"18B","RegionName":"Sunart and Ardgour","Height":771.0,"Latitude":56.803245,"Longitude":-5.249612,"LandrangerMaps":["41"],"ExplorerMaps":["391"],"Id":"K2r5lGYR","Name":"Stob Coire a' Chearcaill"},{"Number":207,"RegionNumber":"18B","RegionName":"Sunart and Ardgour","Height":770.0,"Latitude":56.797506,"Longitude":-5.482126,"LandrangerMaps":["40"],"ExplorerMaps":["391"],"Id":"QgmEBPjw","Name":"Druim Tarsuinn [Stob a' Bhealach an Sgriodain]"},{"Number":208,"RegionNumber":"6A","RegionName":"Glen Tromie to Glen Tilt","Height":769.0,"Latitude":56.992801,"Longitude":-4.015203,"LandrangerMaps":["35"],"ExplorerMaps":["OL56","402"],"Id":"LvmLBxYx","Name":"Meallach Mhor"},{"Number":209,"RegionNumber":"16F","RegionName":"Lochinver to Ullapool","Height":769.0,"Latitude":58.029553,"Longitude":-5.151012,"LandrangerMaps":["15"],"ExplorerMaps":["439E"],"Id":"83mWN3rx","Name":"Cul Beag"},{"Number":210,"RegionNumber":"1C","RegionName":"Loch Lomond to Strathyre","Height":768.7,"Latitude":56.281081,"Longitude":-4.659947,"LandrangerMaps":["50","56"],"ExplorerMaps":["OL39N","364N"],"Id":"1dYl9WrN","Name":"Beinn a' Choin"},{"Number":211,"RegionNumber":"9B","RegionName":"Glen Albyn and the Monadh Liath","Height":768.0,"Latitude":57.015739,"Longitude":-4.707348,"LandrangerMaps":["34"],"ExplorerMaps":["400"],"Id":"3Rr0KDYk","Name":"Carn Dearg"},{"Number":212,"RegionNumber":"14A","RegionName":"Loch Maree to Loch Broom","Height":767.0,"Latitude":57.844449,"Longitude":-5.315836,"LandrangerMaps":["19"],"ExplorerMaps":["435N"],"Id":"DlrwXWmQ","Name":"Sail Mhor"},{"Number":213,"RegionNumber":"14B","RegionName":"The Fannaichs","Height":766.0,"Latitude":57.698655,"Longitude":-4.886379,"LandrangerMaps":["20"],"ExplorerMaps":["436S"],"Id":"2VjxbbrQ","Name":"Beinn Liath Mhor a' Ghiubhais Li [Beinn Liath Mhor a' Ghiuthais]"},{"Number":214,"RegionNumber":"17E","RegionName":"Mull and Nearby Islands","Height":766.0,"Latitude":56.460438,"Longitude":-5.779508,"LandrangerMaps":["49"],"ExplorerMaps":["375E"],"Id":"ZGjOqGry","Name":"Dun da Ghaoithe"},{"Number":215,"RegionNumber":"18C","RegionName":"Morvern and Kingairloch","Height":766.0,"Latitude":56.649484,"Longitude":-5.503071,"LandrangerMaps":["49"],"ExplorerMaps":["376","383E"],"Id":"1Vj2EQm2","Name":"Fuar Bheinn"},{"Number":216,"RegionNumber":"10D","RegionName":"Mallaig to Fort William","Height":765.0,"Latitude":56.92688,"Longitude":-5.32867,"LandrangerMaps":["40"],"ExplorerMaps":["398E"],"Id":"1Xr3LXm8","Name":"Braigh nan Uamhachan"},{"Number":217,"RegionNumber":"16B","RegionName":"Durness to Loch Shin","Height":764.2,"Latitude":58.404926,"Longitude":-4.435027,"LandrangerMaps":["10"],"ExplorerMaps":["447S"],"Id":"Z1jPVlr2","Name":"Ben Loyal - An Caisteal"},{"Number":218,"RegionNumber":"1D","RegionName":"Inveraray to Crianlarich","Height":764.0,"Latitude":56.333881,"Longitude":-4.798858,"LandrangerMaps":["50","56"],"ExplorerMaps":["OL39N","364N"],"Id":"K2r5lnYR","Name":"Meall an Fhudair"},{"Number":219,"RegionNumber":"16E","RegionName":"Scourie to Lairg","Height":764.0,"Latitude":58.201879,"Longitude":-5.05447,"LandrangerMaps":["15"],"ExplorerMaps":["442E"],"Id":"QgmEByjw","Name":"Quinag - Spidean Coinich"},{"Number":220,"RegionNumber":"19C","RegionName":"Loch Fyne to Bute and the Firth of Clyde","Height":763.5,"Latitude":56.16661,"Longitude":-4.846554,"LandrangerMaps":["56"],"ExplorerMaps":["OL37N","363N"],"Id":"LvmLBzYx","Name":"Cnoc Coinnich"},{"Number":221,"RegionNumber":"15B","RegionName":"Loch Vaich to Moray Firth","Height":763.0,"Latitude":57.642775,"Longitude":-4.632641,"LandrangerMaps":["20"],"ExplorerMaps":["437S"],"Id":"83mWNerx","Name":"Little Wyvis"},{"Number":222,"RegionNumber":"18B","RegionName":"Sunart and Ardgour","Height":762.4,"Latitude":56.742777,"Longitude":-5.407524,"LandrangerMaps":["40"],"ExplorerMaps":["391"],"Id":"1dYl9LrN","Name":"Beinn na h-Uamha"}]