Number,Name,Map 1:50k,Map 1:25k,Metres,Feet,Grid ref,Grid ref 10,Drop,Col grid ref,Col height,Feature,Observations,Latitude,Longitude
1,Ben Nevis,41,392,1344.53,4411,NN166712,NN 16670 71279,1344.5,Sea,0,no feature: natural ground 10m NW of trig point,man-made structure supporting emergency structure is higher,56.796891,-5.003675
2,Ben Macdui [Beinn Macduibh],36 43,OL57S 403S,1309,4295,NN988989,NN 98900 98934,950,NN632842,359,trig point on large platform,,57.070368,-3.669099
3,Braeriach,36 43,OL57S 403S,1296,4252,NN953999,NN 95328 99906,461,NH973013,835,rock c 20m NE of cairn,top of rock is level with half way up the cairn,57.078298,-3.728389
4,Cairn Toul,36 43,OL57S 403S,1291,4236,NN963972,NN 96329 97219,166,NN946975,1125,large cairn,,57.054397,-3.710773
5,Sgor an Lochain Uaine,36 43,OL57S 403S,1258,4127,NN954976,NN 95429 97684,118,NN958972,1140,cairn,,57.058369,-3.725797
6,Cairn Gorm,36,OL57S 403S,1244.8,4084,NJ005040,NJ 00517 04056,145.8,NH 9989 0350,1099,rock at base of large cairn,,57.116714,-3.644477
7,Aonach Beag,41,392,1234,4049,NN197715,NN 19710 71493,404,NN186722,830,cairn,,56.799998,-4.954121
8,Aonach Mor,41,392,1221,4006,NN193729,NN 19307 72952,134,NN193719,1087,large cairn,,56.812932,-4.961744
9,Carn Mor Dearg,41,392,1220,4003,NN177721,NN 17752 72163,162,NN175713,1058,cairn,,56.805246,-4.986616
10,Ben Lawers,51,OL48E 378E,1214,3983,NN635414,NN 63555 41416,915,NN292538,299,trig point,rock 5m N is of very similar height,56.544922,-4.22086
11,Beinn a' Bhuird [Beinn a' Bhuird North Top],36,OL58S 404S,1197,3927,NJ092006,NJ 09232 00612,456,NJ033005,741,cairn,,57.08759,-3.499366
12,Beinn Mheadhoin,36,OL57S 403S,1182.9,3881,NJ024016,NJ 02461 01686,254,NJ007006,929,rock tor,,57.095849,-3.611464
13,Carn Eige [Carn Eighe],25,414N,1182.8,3881,NH123261,NH 12358 26186,1147,NN289971,36,trig point in shelter,,57.287701,-5.115159
14,Mam Sodhail,25,414N,1179.4,3869,NH120253,NH 12010 25321,132.4,NH 1200 2584,1047,rock by tiny cairn c 45m SE of windshelter,rock is 0.40m higher than ground by windshelter,57.279801,-5.120267
15,Stob Choire Claurigh,41,392,1177,3862,NN261738,NN 26199 73869,446,NN211705,731,cairn/shelter,,56.823786,-4.849624
16,Ben More,51,OL46N 365N,1174,3852,NN432244,NN 43279 24409,986,NN382244,188,trig point,,56.385952,-4.540087
17,Ben Avon - Leabaidh an Daimh Bhuidhe,36,OL58S 404S,1171,3842,NJ131018,NJ 13195 01836,197,NJ118010,974,rock tower,,57.099347,-3.434422
18,Stob Binnein,51,OL46N 365N,1165,3822,NN434227,NN 43484 22704,303,NN432235,862,cairn,,56.370717,-4.535753
19,Beinn Bhrotain,43,OL57S 403S,1157,3796,NN954922,NN 95414 92283,258,NN937958,899,trig point,ground 25m N at NN 95420 92305 is as high,57.009868,-3.723797
20,Lochnagar - Cac Carn Beag,44,OL53N 388N,1156,3793,NO243861,NO 24372 86130,671,NN999825,485,rock tor 2m NE of trig point,,56.960263,-3.245261
21,Derry Cairngorm,36 43,OL57S 403S,1155,3789,NO017980,NO 01735 98023,141,NO012989,1014,northern of two cairns,cairns are about 50m apart,57.062801,-3.622004
22,Sgurr nan Ceathreamhnan [Sgurr nan Ceathramhnan],25 33,414N,1151,3776,NH057228,NH 05705 22840,434,NH098238,717,cairn,,57.254911,-5.222732
23,Sgurr na Lapaich,25,430,1151,3776,NH161351,NH 16106 35114,840,NH060287,311,large boulder 15m E of trig point,boulder is 1m higher than trig point (NH 16090 35111),57.369311,-5.059726
24,Bidean nam Bian,41,384,1149.4,3771,NN143542,NN 14345 54202,844,NN206560,305,cairn,top 200m WNW at NN141542 is lower,56.642768,-5.029335
25,Ben Alder,42,OL50 385E 393,1148,3766,NN496718,NN 49619 71846,783,NN262668,365,trig point,cairn 15m E at NN 49633 71847 may be as high,56.813796,-4.465089
26,Geal-charn,42,OL50 393,1132,3714,NN469746,NN 46994 74620,410,NN480732,722,large cairn,,56.837836,-4.50971
27,Ben Lui [Beinn Laoigh],50,OL39N 364N 377E,1130,3707,NN266262,NN 26638 26288,875,NN320308,255,cairn,cairn 150m NW at NN 26549 26406 (hill 66) is lower,56.396932,-4.81052
28,Binnein Mor,41,392,1130,3707,NN212663,NN 21222 66342,759,NN239693,371,rock by cairn,,56.754367,-4.925795
29,An Riabhachan,25,430,1129,3704,NH133344,NH 13366 34471,302,NH152344,827,large cairn,NE top (NH 13828 34751) is about 4m lower,57.362429,-5.104728
30,Creag Meagaidh,34 42,OL55 401,1128,3701,NN418875,NN 41843 87537,867,NN566903,261,large cairn,,56.952033,-4.602101
31,Ben Cruachan,50,377W,1127,3698,NN069304,NN 06966 30464,880,NN190413,247,rock 3m from trig point,trig point destroyed,56.426839,-5.131828
32,Meall Garbh,51,OL48E 378E,1123.1,3685,NN644437,NN 64439 43749,198,NN635426,925,small cairn,,56.566122,-4.207707
33,Beinn a' Ghlo - Carn nan Gabhar,43,OL51E 394E,1121.9,3681,NN971733,NN 97120 73305,658,NN990726,464,rock at base of large cairn,trig point 140m SW at NN 97047 73187 is probably lower,56.839792,-3.688004
34,A' Chraileag [A' Chralaig],33,414N 414S,1120,3675,NH094147,NH 09434 14787,786,NH045175,334,very large cairn,,57.184186,-5.154837
35,Sgor Gaoith,36 43,OL57S 403S,1118,3668,NN903989,NN 90301 98952,242,NN916955,876,ground on edge of crag,,57.068561,-3.810856
36,An Stuc,51,OL48E 378E,1117.1,3665,NN638431,NN 63892 43095,126,NN640432,991,large rock 25m SW of cairn,cairn is at NN 63877 43079,56.560093,-4.216258
37,Stob Coire an Laoigh,41,392,1116,3661,NN239725,NN 23987 72523,74,NN254734,1042,circular stone wind shelter,,56.810877,-4.884891
38,Aonach Beag,42,OL50 393,1115.8,3661,NN457741,NN 45789 74181,99,NN 4623 7423,1017,cairn,,56.833496,-4.529181
39,Stob Coire Easain,41,392,1115,3658,NN308730,NN 30805 73057,611,NN280751,504,cairn,,56.818199,-4.77371
40,Monadh Mor,36 43,OL57S 403S,1113,3652,NN938942,NN 93866 94207,138,NN 9471 9271,975,rock 12m S of cairn,rock is 15cm higher than cairn at NN 93860 94216,57.026791,-3.750086
41,Tom a' Choinich,25,415,1112,3648,NH164273,NH 16405 27323,149,NH 1482 2659,962.8,large cairn,,57.299518,-5.048959
42,Carn a' Choire Bhoidheach,44,OL53N 388N,1109.9,3641,NO226845,NO 22673 84548,75,NO240851,1035,cairn,,56.945773,-3.272707
43,Sgurr nan Conbhairean,34,414N 414S,1109,3638,NH129138,NH 12990 13885,382,NH109142,727,large cairn,,57.177621,-5.095424
44,Sgurr Mor,20,436S,1108,3635,NH203718,NH 20325 71806,913,NH127541,195,large cairn,,57.700133,-5.016765
45,Meall a' Bhuiridh,41,384,1107.9,3635,NN250503,NN 25066 50337,795,NN313472,313,cairn,,56.612217,-4.852127
46,Stob a' Choire Mheadhoin,41,392,1105,3625,NN316736,NN 31655 73634,140,NN312732,965,cairn,,56.823685,-4.760183
47,Beinn Eibhinn,42,OL50 393,1103.2,3619,NN449733,NN 44968 73293,127,NN 4553 7374,976,boulder 170m E of large cairn,large cairn on W top (1102.4m) is 0.80m lower,56.825254,-4.542082
48,Beinn Ghlas,51,OL48E 378E,1103,3619,NN625404,NN 62532 40455,107,NN630411,996,cairn,,56.535996,-4.236976
49,Mullach Fraoch-choire,33,414N,1102,3615,NH094171,NH 09494 17142,153,NH093164,949,large cairn,,57.205379,-5.155652
50,Creise,41,384,1099.8,3608,NN238506,NN 23858 50636,169.4,NN 2434 5007,930.4,small rock 3m from cairn,,56.614449,-4.871979
51,Sgurr a' Mhaim,41,392,1099,3606,NN164667,NN 16469 66721,316,NN193656,783,cairn,,56.75592,-5.00369
52,Sgurr Choinnich Mor,41,392,1094,3589,NN227714,NN 22774 71410,159,NN232721,935,cairn,,56.80043,-4.90396
53,Sgurr nan Clach Geala,20,436S,1093,3586,NH184714,NH 18431 71462,229,NH189721,864,cairn,base of cairn is higher than flush bracket of trig point,57.696287,-5.048238
54,Stob Ghabhar,50,377E 384,1090,3576,NN230455,NN 23021 45506,393,NN229485,697,cairn,,56.568103,-4.882099
55,Bynack More,36,OL57N OL57S OL58N OL58S 403N 403S 404N 404S,1090,3576,NJ041063,NJ 04191 06364,283,NJ018033,807,rock 45m N of cairn,cairn is at NJ 04190 06321,57.13822,-3.584716
56,Beinn a' Chlachair,42,OL50 393,1087,3566,NN471781,NN 47125 78146,539,NN477771,548,cairn,,56.869525,-4.509684
57,Beinn Dearg,20,436N,1084,3556,NH259811,NH 25935 81171,805,NH272742,279,large cairn,,57.78635,-4.929557
58,Schiehallion,42 51 52,OL49W 386W,1083,3553,NN713547,NN 71386 54760,716,NN368396,367,rock 20m NW of cairn,this rock is 15cm higher than a rock under the cairn (NN 71397 54747),56.666933,-4.100229
59,Beinn a' Chaorainn,36,OL57S OL58S 403S 404S,1083,3553,NJ045013,NJ 04516 01352,246,NJ063003,837,large cairn,,57.093281,-3.577434
60,Sgurr a' Choire Ghlais,25,430,1083,3553,NH258430,NH 25838 43045,818,NH078365,265,large cairn,trig point 60m E at NH 25884 43005 is as high; cairn 80m SSE at NH 25883 42975 is lower,57.444288,-4.903757
61,Beinn a' Chreachain,50,OL48W 377E 378W,1080.6,3545,NN373440,NN 37390 44067,650,NN392450,431,large cairn,,56.560382,-4.647618
62,Ben Starav,50,377W,1078,3537,NN125427,NN 12577 42706,446,NN187459,632,cairn,trig point destroyed,56.538876,-5.049793
63,Beinn Sheasgarnaich [Beinn Heasgarnich],51,OL48W 378W,1077.4,3535,NN413383,NN 41383 38331,579,NN 4471 3924,498.4,large cairn,,56.510272,-4.579218
64,Beinn Dorain,50,377E,1076,3530,NN325378,NN 32557 37847,332,NN325398,744,large cairn,,56.50287,-4.722157
65,Stob Coire Sgreamhach,41,384,1072,3517,NN154536,NN 15491 53656,128,NN150536,944,cairn,ground 50m W is about 1m lower,56.638322,-5.010285
66,Beinn a' Ghlo - Braigh Coire Chruinn-bhalgain,43,OL51E 394E,1070,3510,NN945724,NN 94564 72394,222.4,NN 9583 7269,847.6,flat rock 7m S of cairn,,56.831083,-3.729505
67,Meall Corranaich,51,OL48E 378E,1069,3507,NN615410,NN 61536 41039,202,NN620407,867,cairn with metal fence posts,,56.540946,-4.253469
68,An Socach,25,429 430,1069,3507,NH100332,NH 10064 33263,207,NH111334,862,trig point,,57.350229,-5.158603
69,Sgurr Fhuaran,33,414N 414S,1068.7,3506,NG978166,NG 97852 16667,665,NH076161,404,cairn,,57.19615,-5.34765
70,Glas Maol,43,OL52N 387N,1068,3504,NO166765,NO 16700 76567,194,NO216802,874,trig point,ground to 20m N and S of trig point is about same height,56.873059,-3.368236
71,Cairn of Claise,43,OL52N OL53N 387N 388N,1064,3491,NO185788,NO 18550 78881,119,NO174778,945,cairn on rocky knoll,,56.89417,-3.338637
72,An Teallach - Bidein a' Ghlas Thuill,19,435N,1062.5,3486,NH068843,NH 06899 84354,757,NH093728,306,rocks 6m S of trig point,,57.807098,-5.251767
73,An Teallach - Sgurr Fiona,19,435N,1058.6,3473,NH064836,NH 06409 83667,141.7,NH 0654 8401,916.9,cairn,,57.800726,-5.259443
74,Liathach - Spidean a' Choire Leith,25,433,1055,3461,NG929579,NG 92938 57958,957,NG974573,98,cairn,,57.564198,-5.463592
75,Na Gruagaichean,41,392,1054.2,3459,NN203652,NN 20310 65191,96.8,NN 20741 65407,957.4,cairn,,56.743687,-4.939875
76,Stob Poite Coire Ardair,34 42,OL55 401,1054,3458,NN428888,NN 42888 88835,109,NN426885,945,small cairn,,56.964037,-4.585745
77,Toll Creagach,25,415,1054,3458,NH194282,NH 19404 28269,182,NH 1720 2753,872,rock 20m W of cairn,rock is higher than cairn (NH 19425 28265) which is higher than trig point (NH 19450 28280) 25m NE of cairn,57.309227,-4.999953
78,Sgurr a' Chaorachain,25,429,1053,3455,NH087447,NH 08752 44726,568,NH159463,485,trig point (broken),,57.452492,-5.1893
79,Beinn a' Chaorainn,34 41,OL55 400 401,1052,3451,NN386850,NN 38609 85054,230,NN396866,822,cairn,,56.928634,-4.653628
80,Glas Tulaichean,43,OL52N 387N,1051,3448,NO051760,NO 05106 76002,384,NO141774,667,trig point,ground in 10m radius about as high,56.865757,-3.558163
81,Geal Charn,42,OL50 393,1049,3442,NN504811,NN 50434 81172,310,NN489800,739,large cairn next to trig point,,56.897763,-4.457236
82,Sgurr Fhuar-thuill,25,430,1049,3442,NH235437,NH 23583 43743,147,NH249433,902,cairn,,57.44968,-4.94178
83,Creag Mhor,50,OL48W 378W,1047,3435,NN391361,NN 39154 36103,393,NN397367,654,cairn,,56.489519,-4.614022
84,Carn an t-Sagairt Mor,44,OL53N 388N,1047,3435,NO208842,NO 20811 84271,85,NO212846,962,large boulder next to cairn,,56.942973,-3.303227
85,Chno Dearg,41,OL50 393,1046,3432,NN377741,NN 37744 74106,644,NN369661,402,large cairn,,56.830086,-4.660831
86,Ben Wyvis - Glas Leathad Mor,20,437S,1046,3432,NH462683,NH 46298 68368,691,NH368825,355,trig point,,57.678914,-4.579266
87,Cruach Ardrain,51 56,OL39N 364N,1045.9,3431,NN409212,NN 40930 21207,549,NN421226,497,cairn,,56.356429,-4.576151
88,Beinn Iutharn Mhor,43,OL52N 387N,1045,3428,NO045792,NO 04567 79270,247,NO058779,798,cairn,,56.894994,-3.568229
89,Stob Coir' an Albannaich,50,377W,1044,3425,NN169443,NN 16956 44296,306,NN163433,738,flat-topped cairn,,56.554921,-4.97981
90,Meall nan Tarmachan,51,OL48E 378E,1043.5,3424,NN585389,NN 58521 38990,494.4,NN 5923 4157,549.2,cairn,,56.521655,-4.301343
91,Carn Mairg,42 51,OL48E OL49W 378E 386W,1042,3419,NN684512,NN 68493 51252,466,NN694549,576,large cairn,,56.634617,-4.145607
92,Sgurr na Ciche,33 40,398E,1040,3412,NM902966,NM 90227 96674,839,NM931992,201,boulder 5m NE of destroyed trig point,cairn 6m E at NM 90235 96676 and trig point NM 90222 96673 are both about 30cm lower,57.013452,-5.456854
93,Meall Ghaordaidh,51,OL48W 378W,1039.8,3411,NN514397,NN 51445 39696,492,NN558413,548,trig point in windshelter,,56.525809,-4.416654
94,Beinn Achaladair,50,377E,1038.5,3407,NN344432,NN 34471 43234,226,NN353434,813,rock outcrop,note this does not correspond to published GR where there was no cairn,56.551887,-4.694525
95,Carn a' Mhaim,36 43,OL57S 403S,1037,3402,NN994951,NN 99458 95190,231,NN986971,806,cairn,,57.036871,-3.6584
96,Sgurr a' Bhealaich Dheirg,33,414N 414S,1036,3399,NH035143,NH 03520 14349,311,NH010145,725,large cairn on rock,,57.177825,-5.252177
97,Gleouraich,33,414S,1035,3396,NH039053,NH 03948 05335,765,NH038116,270,cairn,,57.097163,-5.238035
98,Carn Dearg,42,OL50 393,1034,3392,NN504764,NN 50419 76435,158,NN490759,876,cairn,,56.855242,-4.454693
99,Beinn Fhada,33,414N,1032,3386,NH018192,NH 01858 19242,647,NH030204,385,trig point,,57.220993,-5.283518
100,Am Bodach,41,392,1031.8,3385,NN176650,NN 17641 65088,152.8,NN 16907 65222,879,cairn,,56.741727,-4.983393
101,Ben Oss,50,OL39N 364N 377E,1029,3376,NN287253,NN 28765 25340,342,NN274245,687,cairn,,56.389272,-4.775488
102,Carn Gorm,42 51,OL48E OL49W 378E 386W,1029,3376,NN635500,NN 63515 50070,187,NN641513,842,rock near small cairn on outcrop,trig point (NN 63481 50134) is over one metre lower,56.622599,-4.226073
103,Carn an Righ,43,OL52N 387N,1029,3376,NO028772,NO 02872 77258,258,NO038771,771,cairn/summit shelter,,56.876574,-3.595272
104,Sgurr a' Mhaoraich,33,414S,1027,3369,NG983065,NG 98399 06540,708,NH051068,319,large cairn,outcrop 30m N at NG 98396 06571 is as high,57.105573,-5.330434
105,Sgurr na Ciste Duibhe,33,414N 414S,1027,3369,NG984149,NG 98404 14942,178,NG977154,849,large well built cairn,adjacent rocks of similar height to cairn base; rock on knoll 65m W may be as high,57.180924,-5.337134
106,Ben Challum [Beinn Challuim],50,OL48W 377E 378W,1025,3363,NN386322,NN 38688 32227,450,NN378330,575,cairn,,56.454573,-4.619184
107,Beinn a' Bheithir - Sgorr Dhearg,41,384,1024,3360,NN056558,NN 05688 55837,729,NN051543,295,cairn,trig point destroyed,56.653921,-5.17151
108,Liathach - Mullach an Rathain,25,433,1023,3356,NG911576,NG 91188 57679,152,NG925575,871,cairn,,57.560891,-5.49255
109,Buachaille Etive Mor - Stob Dearg,41,384,1021.4,3351,NN222542,NN 22269 54245,532,NN183529,489,outcrop near cairn on path,embedded rock by main cairn 115m NE at NN 22364 54312 is 0.2m lower,56.646229,-4.900336
110,Ladhar Bheinn,33,413S,1020,3346,NG824039,NG 82404 03972,795,NG970040,225,cairn,,57.075263,-5.591745
111,Aonach air Chrith,33,414S,1019.5,3345,NH051083,NH 05106 08344,493,NG977098,527,small rock 10m N of cairn,,57.12464,-5.221291
112,Beinn Bheoil,42,OL50 385E 393,1019,3343,NN517717,NN 51718 71713,186,NN506702,833,cairn,rock 10m SW of cairn may be higher than cairn base,56.813276,-4.430662
113,Carn an Tuirc,43,OL52N OL53N 387N 388N,1019,3343,NO174804,NO 17454 80474,64,NO182802,955,no feature,cairn 35m WSW at NO 17420 80461 is 0.5m lower; many loose rocks in summit area; cairn 350m ENE at NO 17806 80539 is a few metres lower,56.908282,-3.357142
114,Mullach Clach a' Bhlair,35 43,OL57S 403S,1019,3343,NN882927,NN 88287 92693,104,NN890949,915,cairn,,57.011879,-3.841271
115,Mullach Coire Mhic Fhearchair,19,435S,1015.2,3331,NH052735,NH 05209 73499,591,NH068715,424,tiny cairn,,57.709022,-5.271342
116,Garbh Chioch Mhor,33 40,398E,1013,3323,NM909961,NM 90959 96091,168,NM906964,845,rock outcrop,cairn 20m E at NM 90983 96088 is about 1m lower,57.008556,-5.444338
117,Cairn Bannoch,44,OL53N 388N,1012,3320,NO222825,NO 22289 82546,77,NO211835,935,cairn,,56.927728,-3.278403
118,The Saddle,33,414N 414S,1011.4,3318,NG936131,NG 93614 13113,334,NG952111,677,small cairn,,57.162395,-5.414721
119,Beinn Ime,56,OL39S 364S,1011,3317,NN254084,NN 25500 08483,712,NN271211,299,shelter around old trig point,,56.236812,-4.817142
120,Beinn Udlamain,42,OL50 393,1010.2,3314,NN579739,NN 57947 73966,555,NN630759,455,ground on W edge of large windshelter,"ground 130m N is 0.5m lower, boulder 5m SW is lower",56.835444,-4.329976
121,Sgurr Eilde Mor,41,392,1010,3314,NN230657,NN 23057 65779,271,NN224656,739,cairn,,56.750015,-4.895436
122,Sgurr an Doire Leathain,33,414S,1010,3314,NH015098,NH 01527 09878,189,NH022093,821,cairn,,57.13687,-5.281531
123,Beinn Eighe - Ruadh-stac Mor,19,433,1010,3314,NG951611,NG 95145 61140,632,NG934593,378,cairn,,57.593735,-5.429454
124,Beinn Dearg,43,OL51E 394E,1008.7,3309,NN852778,NN 85297 77791,473,NN916873,536,pointed boulder 17m N of trig point,trig point in windshelter is at NN 85292 77776,56.877346,-3.883719
125,An Sgarsoch,43,OL51E 394E,1006.5,3302,NN933836,NN 93340 83676,319,NN857808,687,no feature: ground 20m N of cairn,large cairn at NN 93335 83656 may hide ground as high,56.932109,-3.754294
126,Carn Liath,34,OL55 401,1006,3301,NN472903,NN 47230 90316,87,NN462902,919,large cairn,,56.978784,-4.515305
127,Maoile Lunndaidh,25,430,1004.9,3297,NH135458,NH 13509 45842,10.5,NH 1316 4546,994.4,blade of rock 20m SW of large cairn,cairn is at NH 13523 45856 and is 0.20m lower,57.464477,-5.111002
128,Beinn Fhionnlaidh,25,414N,1004.7,3296,NH115282,NH 11563 28262,173,NH116275,832,large cairn,rock c 12m SSE of cairn may be as high,57.305977,-5.129909
129,Beinn an Dothaidh,50,377E,1004,3294,NN331408,NN 33181 40860,247,NN340405,757,cairn,,56.53013,-4.713964
130,The Devil's Point,36 43,OL57S 403S,1004,3294,NN976951,NN 97611 95108,89,NN970953,915,cairn,,57.035728,-3.688788
131,Sgurr an Lochain,33,414S,1004,3294,NH005104,NH 00583 10410,123,NH009099,881,cairn,,57.141232,-5.297527
132,Sgurr Mor,33 40,398E,1003,3291,NM965980,NM 96539 98030,341,NM951964,662,cairn,,57.028437,-5.354188
133,Sgurr na Carnach,33,414N 414S,1002,3287,NG977158,NG 97718 15880,134,NG977163,868,large cairn,rocks by cairn are about as high as cairn base,57.189034,-5.349224
134,Sail Chaorainn [Sail Chaoruinn],34,414N 414S,1002,3287,NH133154,NH 13324 15451,88,NH129147,914,small cairn,rib of rock 12m S is as high,57.191805,-5.091081
135,Meall Greigh,51,OL48E 378E,1001,3284,NN674438,NN 67402 43800,167,NN657440,834,cairn,,56.567426,-4.159559
136,Beinn a' Bheithir - Sgorr Dhonuill,41,384,1001,3284,NN040555,NN 04062 55531,244,NN047554,757,cairn,,56.650499,-5.197757
137,Aonach Meadhoin,33,414N 414S,1001,3284,NH048137,NH 04888 13755,174,NH040138,827,cairn,,57.173082,-5.229121
138,Stob Ban,41,392,999.7,3280,NN147654,NN 14781 65434,237.1,NN 1567 6538,762.6,large cairn,,56.743706,-5.030328
139,Stob Daimh [Stob Diamh],50,377W,999.2,3278,NN094308,NN 09486 30850,134.5,NN 0894 3071,864.7,rock 6m NE of large cairn,cairn is over 1m high and may hide higher rock,56.431327,-5.091319
140,Sgurr Choinnich,25,429,999.2,3278,NH076446,NH 07628 44616,133,NH081446,866,cairn,,57.451026,-5.207916
141,Sgurr Breac,20,435S 436S,999,3278,NH158711,NH 15819 71110,451,NH175705,548,NW cairn near edge of crag,cairn 25m SE (NH 15843 71096) may be as high,57.692067,-5.091724
142,Broad Cairn,44,OL53N 388N,998,3274,NO240815,NO 24057 81559,64,NO234817,934,cairn,,56.919157,-3.249066
143,Ben More Assynt,15,442E,998,3274,NC318201,NC 31832 20137,835,NC299079,163,tiny cairn,cairn c 60m S at NC 31840 20084 is probably lower,58.138164,-4.858208
144,Glas Bheinn Mhor,50,377W,997,3271,NN153429,NN 15332 42975,231,NN138424,766,cairn,,56.542389,-5.005249
145,A' Chailleach,19,435S,997,3271,NH136714,NH 13624 71404,182,NH144712,815,cairn,,57.6938,-5.128715
146,Spidean Mialach,33,414S,996,3268,NH065043,NH 06595 04296,257,NH054048,739,well built wind shelter,,57.088964,-5.193614
147,An Caisteal,50 56,OL39N 364N,995.8,3267,NN378193,NN 37876 19336,473,NN397197,523,cairn,,56.3386,-4.624368
148,Carn an Fhidhleir [Carn Ealar],43,OL51E 394E,994.1,3261,NN904841,NN 90468 84170,285.7,NN 9197 8292,708.4,cairn,,56.935874,-3.801675
149,Sgurr na h-Ulaidh [Sgor na h-Ulaidh],41,384,994,3261,NN111517,NN 11121 51784,415,NN130524,579,cairn,,56.619787,-5.080059
150,Sgurr na Ruaidhe,25,430,993,3258,NH289426,NH 28902 42604,226,NH280430,767,large cairn,,57.441497,-4.852465
151,Carn nan Gobhar,25,430,993,3258,NH181343,NH 18191 34351,197,NH171347,796,cairn,large cairn 260m SSE at NH 18304 34113 is several metres lower,57.363304,-5.024544
152,Beinn Eighe - Spidean Coire nan Clach,25,433,993,3258,NG966597,NG 96618 59768,172,NG956595,821,cairn,,57.582098,-5.403706
153,Carn nan Gobhar,25,430,992,3255,NH273438,NH 27305 43879,137,NH266432,855,cairn,area quite flat with boulders in vicinity of similar height to summit location,57.452331,-4.879935
154,Sgurr Alasdair,32,411,992,3255,NG450207,NG 45007 20772,992,Sea,0,cairn,,57.206598,-6.224144
155,Sgairneach Mhor,42,OL50 393,991,3251,NN598731,NN 59884 73121,182,NN582727,809,trig point in windshelter,cairn is 5m W at NN 59879 73120 and of equal height; ground to 15m in arc NW-W-SW <15cm lower,56.828447,-4.297792
156,Beinn Eunaich,50,377W,989,3245,NN135327,NN 13566 32789,425,NN104319,564,cairn,,56.450352,-5.026639
157,Sgurr Ban,19,435S,989,3245,NH055745,NH 05584 74542,165,NH051739,824,large cairn,,57.718538,-5.265903
158,Creag Leacach,43,OL52N 387N,988.2,3242,NO154745,NO 15469 74540,70.7,NO 1573 7490,917.5,cairn on rock rib,,56.854631,-3.387751
159,Druim Shionnach,33,414S,987,3238,NH074084,NH 07444 08475,101,NH056081,886,cairn,,57.126803,-5.182842
160,Gulvain [Gaor Bheinn],41,399,987,3238,NN002875,NN 00271 87564,842,NM889895,145,large cairn,,56.936202,-5.284526
161,Lurg Mhor,25,429,987,3238,NH064404,NH 06484 40440,442,NH046423,545,cairn on rock outcrop,outcrop at base of cairn is 20-30cm higher than rock c 40m WNW,57.413091,-5.22365
162,Conival,15,442E,987,3238,NC303199,NC 30332 19925,101,NC 3099 2006,886,shelter,,58.135689,-4.883497
163,Beinn Alligin - Sgurr Mhor,19 24,433,986,3235,NG865612,NG 86568 61258,601,NG925603,385,cairn,,57.59082,-5.572764
164,Sgurr Dearg - Inaccessible Pinnacle,32,411,986,3235,NG444215,NG 44409 21554,187,NG447213,799,block of rock,,57.21327,-6.234819
165,Ben Vorlich,57,OL46N OL47W 365N 368W,985,3232,NN629189,NN 62914 18909,834,NN 5754 2149,151,trig point,cairn 125m ESE at NN 63033 18865 is lower,56.34268,-4.219464
166,Mullach na Dheiragain,25 33,414N,982,3222,NH080259,NH 08047 25906,144,NH066235,838,cairn,ground 25m NNW as high,57.283399,-5.18635
167,An Gearanach,41,392,981.4,3220,NN187669,NN 18775 66980,151.4,NN 17821 65476,830,cairn,,56.759143,-4.966203
168,Stob Coire a' Chairn,41,392,981.4,3220,NN185660,NN 18563 66053,124.7,NN18674 66320,856.7,cairn,,56.750744,-4.969025
169,Meall na Aighean,51,OL48E OL49W 378E 386W,981,3219,NN694496,NN 69479 49660,136,NN689503,845,rock 2m N of cairn,rock is 10cm higher than rock in cairn; rock 8m E is as high,56.620618,-4.12874
170,Slioch,19,433 435S,981,3219,NH004690,NH 00471 69064,626,NH013711,355,cairn,rocks to N may be as high,57.667176,-5.347047
171,Maol Chinn-dearg,33,414S,980.3,3216,NH032087,NH 03224 08759,137.7,NH 0407 0830,842.6,cairn,,57.12756,-5.252651
172,Beinn a' Chochuill,50,377W,980,3215,NN109328,NN 10982 32840,252,NN 1272 3279,728,cairn on rock slab,,56.449781,-5.068536
173,Stob Coire Sgriodain,41,OL50 393,979,3212,NN356743,NN 35672 74372,90,NN367734,889,cairn,,56.831745,-4.694918
174,Ciste Dhubh,33,414N 414S,979,3212,NH062166,NH 06240 16608,388,NH061148,591,small cairn,,57.199243,-5.209016
175,Beinn Dubhchraig,50,OL39N 364N 377E,978,3209,NN307254,NN 30767 25485,199,NN297259,779,cairn,,56.391295,-4.743193
176,Cona'  Mheall,20,436N,978,3209,NH275816,NH 27512 81629,165,NH268817,813,cairn,,57.791068,-4.9034
177,Stob Ban,41,392,977,3205,NN266723,NN 26672 72385,174,NN264729,803,cairn,,56.810647,-4.840876
178,Meall nan Ceapraichean,20,436N,977,3205,NH257825,NH 25729 82535,126,NH263820,851,cairn,,57.798505,-4.934011
179,Beinn a' Ghlo - Carn Liath,43,OL51E 394E,976,3202,NN936698,NN 93607 69822,211,NN938714,765,large cairn,cairn base is 80cm higher than trig point flush bracket,56.80777,-3.744106
180,Stuc a' Chroin,57,OL46N OL47W 365N 368W,975,3199,NN617174,NN 61749 17458,252,NN621183,723,cairn on E side of summit,cairn on W side of summit at NN 61673 17437 is lower,56.329315,-4.237533
181,Carn a' Gheoidh,43,OL52N 387N,975,3199,NO107767,NO 10704 76692,298,NO090777,677,cairn,embedded boulder 5m S of cairn is highest visible feature but higher ground probably lies under cairn,56.873065,-3.466616
182,Ben Lomond,56,OL39S 364S,974,3196,NN367028,NN 36711 02856,820,NN397098,154,rock outcrop c 4m SE of trig point,,56.190293,-4.633009
183,Beinn Sgritheall,33,413S,974,3196,NG835126,NG 83592 12671,500,NG883120,474,cairn by stone shelter,trig point 5m S destroyed,57.153816,-5.579711
184,A' Mharconaich,42,OL50 393,973.2,3193,NN604762,NN 60425 76284,112,NN 59178 75240,861,small cairn and ground to 5m SE,windshelter 95m NE at NN 60485 76354 is 1m lower. Hill 387 500m SW at NN60147 75874 is a few metres lower,56.857002,-4.290668
185,Sgurr a' Ghreadaidh,32,411,973,3192,NG445231,NG 44530 23113,124,NG443218,849,cairn,,57.227304,-6.234424
186,Meall Garbh,42 51,OL48E OL49W 378E 386W,968,3176,NN647516,NN 64709 51678,104,NN655518,864,boulder 18m SE of large cairn,large cairn is at NN 64700 51692,56.637381,-4.207472
187,Aonach Eagach - Sgorr nam Fiannaidh,41,384,967.7,3175,NN140583,NN 14048 58295,623,NN414599,345,remains of trig point,,56.679369,-5.037125
188,A' Mhaighdean,19,433 435S,967,3173,NH007749,NH 00779 74900,442,NH021735,525,pointed rock c 5m SE of cairn,,57.719644,-5.34672
189,Ben More,47 48,375W,966,3169,NM525330,NM 52582 33069,966,Sea,0,OS rivet in centre of large stone shelter,,56.424829,-6.014015
190,Sgurr na Banachdich,32,411,965,3166,NG440224,NG 44051 22436,114,NG443227,851,cairn,,57.220972,-6.241638
191,Sgurr nan Gillean,32,411,964,3163,NG471253,NG 47164 25291,203,NG453238,761,cairn,,57.248278,-6.193133
192,Carn a' Chlamain,43,OL51E 394E,963.5,3161,NN915758,NN 91592 75798,317,NN888802,646,cairn,,56.860968,-3.779629
193,Sgurr Thuilm,40,398E,963,3159,NM939879,NM 93910 87970,614,NM966865,349,cairn,rock 5m S of cairn at NM 93907 87964 may be as high,56.937056,-5.389207
194,Ben Klibreck - Meall nan Con,16,443,962.1,3156,NC585299,NC 58531 29908,819,NC364331,143,large rock 5m E of trig point,rock is 40cm higher than flush bracket,58.235202,-4.41113
195,Sgorr Ruadh,25,429,960.7,3152,NG959505,NG 95910 50494,723,NH073587,238,rock 4m S of cairn,,57.498622,-5.407747
196,Stuchd an Lochain [Stuc an Lochain],51,OL48W 378W,960,3150,NN483448,NN 48308 44832,482,NN592513,478,embedded rock 3m S of cairn,,56.570907,-4.470602
197,Beinn nan Aighenan,50,377W,960,3150,NN148405,NN 14855 40520,343,NN143415,617,cairn,,56.520221,-5.011249
198,Meall Glas,51,OL48W 378W,959,3146,NN431321,NN 43151 32186,554,NN397295,405,cairn on small outcrop,,56.455712,-4.546821
199,Beinn Fhionnlaidh,50,384,959,3146,NN095497,NN 09513 49760,510,NN111506,449,outcrop 10m ESE of trig point,trig point is at NN 09502 49764,56.600979,-5.104733
200,Buachaille Etive Beag - Stob Dubh,41,384,958,3143,NN179535,NN 17913 53532,469,NN169533,489,cairn,,56.638158,-4.970763
201,Tolmount,44,OL53N 388N,958,3143,NO210800,NO 21052 80008,72,NO206794,886,cairn,,56.904725,-3.297929
202,Bruach na Frithe,32,411,958,3143,NG460252,NG 46089 25188,125,NG468252,833,rock by trig point,outcrop 100m NE is 2m lower,57.246761,-6.210795
203,Tom Buidhe,44,OL53N 388N,957,3140,NO213787,NO 21368 78765,71,NO202790,886,cairn,,56.893615,-3.292356
204,Carn Ghluasaid,34,414S,957,3140,NH145125,NH 14579 12512,62,NH140126,895,cairn,30cm higher than cairn on corrie edge 30m NW at NH 14560 12535,57.16595,-5.068158
205,Sgurr nan Coireachan,40,398E,956,3136,NM902880,NM 90294 88003,234,NM915882,722,trig point,,56.935728,-5.448551
206,Saileag,33,414N 414S,956,3136,NH017148,NH 01777 14817,91,NH022145,865,cairn,,57.181273,-5.281332
207,Sgor Gaibhre,42,385E 385W,955,3133,NN444674,NN 44480 67438,300,NN465717,655,cairn,,56.772544,-4.546498
208,Beinn Liath Mhor Fannaich,20,436S,954,3130,NH219724,NH 21962 72399,109,NH216722,845,small cairn,,57.706104,-4.989776
209,Buachaille Etive Mor - Stob na Broige,41,384,953.4,3128,NN190525,NN 19076 52559,134.6,NN 2028 5305,818.8,rock 8m NE of large cairn,,56.62988,-4.951151
210,Beinn Mhanach,50,OL48W 377E 378W,953,3127,NN373411,NN 37373 41132,315,NN354417,638,cairn,,56.53404,-4.646059
211,Sgurr nan Coireachan,33 40,398E,953,3127,NM933958,NM 93312 95817,220,NM927956,733,grassy knoll 6m NNE of cairn,,57.007158,-5.40544
212,Am Faochagach,20,436N 436S,953,3127,NH303793,NH 30363 79360,367,NH293823,586,cairn,,57.771801,-4.853899
213,Aonach Eagach - Meall Dearg,41,384,952.2,3124,NN161583,NN 16128 58354,120.1,NN 15140 58365,832,cairn,,56.68072,-5.003271
214,Meall Chuaich,42,OL51W 394W,951,3120,NN716878,NN 71650 87826,466,NN719786,485,large cairn,,56.963859,-4.112569
215,Meall Gorm,20,436S,949,3114,NH221695,NH 22194 69573,114,NH216700,835,rock outcrop 3m N of cairn,,57.680846,-4.983802
216,Beinn Bhuidhe,50 56,OL39N 364N,948.5,3112,NN203187,NN 20372 18709,592,NN204209,356,trig point base by cairn,trig point destroyed,56.326662,-4.906722
217,Sgurr Mhic Choinnich,32,411,948,3110,NG450210,NG 45026 21036,56,NG450210,892,cairn,,57.208973,-6.224101
218,Driesh,44,OL53S 388S,947,3107,NO271735,NO 27116 73582,138,NO 2602 7381,809,trig point,,56.847985,-3.196538
219,Creag a' Mhaim,33,414S,946,3104,NH087077,NH 08793 07762,80,NH084080,866,cairn,,57.120971,-5.160048
220,Sgurr na Sgine,33,414S,946,3104,NG946113,NG 94622 11357,247,NG944125,699,cairn near shelter,,57.147098,-5.396634
221,Meall Buidhe,33 40,398E 413S,946,3104,NM848989,NM 84902 98966,496,NG856017,450,rock 2m SW of cairn,rock is c 40cm higher than base of cairn,57.031552,-5.546334
222,Beinn Tulaichean,56,OL46N 365N,945.8,3103,NN416196,NN 41663 19596,121.8,NN 4120 2031,824,rock by cairn,,56.342216,-4.56333
223,Carn Dearg,35,OL56 402,945.7,3103,NH635023,NH 63570 02388,591,NN410941,355,cairn,,57.092261,-4.253246
224,Carn Bhac,43,OL52N 387N,945.1,3101,NO051832,NO 05105 83216,186.8,NO 0475 8065,758.2,small cairn 30m S of large shelter cairn,shelter cairn is at NO 05099 83246,56.930541,-3.56088
225,Stob a' Choire Odhair,50,377E 384,945,3100,NN257459,NN 25735 45973,277,NN243457,668,cairn,,56.573308,-4.838302
226,Bidein a' Choire Sheasgaich,25,429,945,3100,NH049412,NH 04909 41254,209,NH054406,736,cairn,,57.419718,-5.250473
227,An Socach,43,OL52N 387N,944,3097,NO079800,NO 07940 80006,188,NO079789,756,cairn,cairn 50m SE at NO 07980 79973 is of similar height,56.902286,-3.513148
228,Sgurr Dubh Mor,32,411,944,3097,NG457205,NG 45763 20535,89,NG452205,855,rock,probably higher than cairn 65m W at NG 45727 20540,57.204894,-6.211421
229,Ben Vorlich,50 56,OL39N OL39S 364N 364S,943,3094,NN295124,NN 29513 12467,632,NN285149,311,cairn on rocky outcrop,higher than trig point 150m SE at NN 29585 12300,56.274021,-4.755046
230,Binnein Beag,41,392,943,3094,NN221677,NN 22175 67703,197,NN217673,746,embedded rock in cairn,,56.766942,-4.911176
231,Beinn a' Chroin,50 56,OL39N 364N,941.4,3089,NN387185,NN 38758 18566,137.1,NN 3815 1860,804.3,huge rounded rock,rock 75m ENE at NN 38830 18602 is 1.1m lower,56.331987,-4.609638
232,Carn Dearg,42,385W,941,3087,NN417661,NN 41776 66134,218,NN432669,723,tall cairn,small cairn 10m NE may be higher,56.759931,-4.589888
233,Carn na Caim,42,OL51W 394W,940.8,3087,NN677821,NN 67702 82144,327,NN720868,614,cairn,,56.911739,-4.174478
234,Mullach nan Coirean,41,392,939.3,3082,NN122662,NN 12237 66234,92.3,NN 1431 6584,847,large cairn,,56.749866,-5.072446
235,Mount Keen,44,OL54 395,939,3081,NO409869,NO 40905 86918,312,NO372867,627,rock 1m S of trig point,,56.969751,-2.973622
236,Luinne Bheinn,33,398E 413S,939,3081,NG869007,NG 86983 00729,255,NG871001,684,cairn,"note there is also a cairn at the W end of the ridge at NG 86854 00821; this is 1m lower according to 1:25,000 map",57.048325,-5.513607
237,Beinn Sgulaird,50,384,937,3074,NN053460,NN 05307 46079,662,NN088468,275,large cairn,,56.566232,-5.170365
238,Sron a' Choire Ghairbh,34,400,937,3074,NN222945,NN 22250 94550,622,NN063958,315,cairn,,57.00784,-4.928747
239,Beinn Tarsuinn,19,435S,937,3074,NH039727,NH 03965 72782,206,NH046725,731,ground by small cairn,,57.702052,-5.291601
240,A' Bhuidheanach Bheag,42,OL51W 394W,936,3071,NN660775,NN 66061 77585,109,NN 6599 7898,827,no feature: ground 11m WSW of trig point,ground 600m WSW at NN 65509 77440 is 0.62m lower,56.870342,-4.199001
241,Beinn na Lap,41,OL50 385W 393,935,3068,NN376695,NN 37619 69576,406,NN361699,529,cairn,,56.78939,-4.659994
242,Meall a' Chrasgaidh,20,436S,934,3064,NH184733,NH 18484 73308,115,NH187727,819,cairn,,57.712866,-5.048742
243,Am Basteir,32,411,934,3064,NG465253,NG 46568 25289,49,NG465252,885,cairn,,57.247931,-6.202982
244,The Cairnwell,43,OL52N 387N,933,3061,NO134773,NO 13487 77350,125,NO127781,808,huge cairn,,56.879502,-3.421198
245,Maol Chean-dearg,25,429,933,3061,NG924499,NG 92409 49899,514,NG932508,419,very large cairn,,57.491697,-5.465549
246,Fionn Bheinn,20,435S,933,3061,NH147621,NH 14752 62137,658,NH176649,275,trig point,,57.611148,-5.102713
247,Beinn Chabhair,50 56,OL39N 364N,932.1,3058,NN367179,NN 36763 17950,313,NN373183,619,small cairn,,56.325775,-4.641485
248,Meall Buidhe,51,OL48W 378W,932.1,3058,NN498499,NN 49841 49937,316,NN447447,616,cairn,cairn is highest point of rather flat area,56.617222,-4.44864
249,Ben Chonzie,51 52,OL47W 368W 379W,931,3054,NN773308,NN 77326 30850,648,NN 5609 2773,283.3,cairn/shelter,,56.453851,-3.992057
250,Beinn Bhreac,36 43,OL57S OL58S 403S 404S,931,3054,NO058970,NO 05871 97066,83,NO050986,848,cairn,,57.055072,-3.553472
251,A' Chailleach,35,OL56 402,929.2,3049,NH681041,NH 68112 04168,108.3,NH 6745 0432,820.9,cairn/windshelter,,57.109564,-4.179285
252,Bla Bheinn [Blabheinn] [Blaven],32,411,929,3048,NG529217,NG 52995 21731,862,NG497241,67,boulder by cairn 5m W of trig point,,57.219565,-6.09321
253,Meall nan Eun,50,377E,928,3045,NN192449,NN 19254 44894,174,NN174446,754,cairn,cairn is c 40m SE of spot height on 25K OS map,56.561177,-4.942893
254,Mayar,44,OL53S 388S,928,3045,NO240737,NO 24082 73740,111,NO218761,817,cairn,,56.848936,-3.246316
255,Moruisg,25,429 430,928,3045,NH101499,NH 10117 49927,594,NH095467,334,large cairn (SW),tiny cairn 120m NE at NH 10185 50022 is as high; large cairn 315m NE at NH 10292 50191 is at least 2m lower,57.499712,-5.17063
256,Beinn Narnain,56,OL39S 364S,927,3041,NN271066,NN 27172 06648,290,NN261071,637,rock outcrop by trig point,,56.220956,-4.789003
257,Eididh nan Clach Geala,20,436N,927,3041,NH257842,NH 25789 84203,166,NH265837,761,rock by cairn,rock near cairn (NH 25720 84318) 135m NNW is about 1m lower,57.813492,-4.934218
258,Ben Hope,9,447N 447S,927,3041,NC477501,NC 47751 50138,772,NC488402,155,trig point,,58.413113,-4.60786
259,Sgurr nan Eag,32,411,926.2,3039,NG457195,NG 45710 19524,130.3,NG 4541 2016,795.9,cairn,,57.19581,-6.211264
260,Geal Charn,35,OL55 401,926,3038,NN561987,NN 56146 98758,100,NN569998,826,2m high cairn,,57.057418,-4.373572
261,Beinn Liath Mhor,25,429,926,3038,NG964519,NG 96412 51969,271,NG955512,655,large cairn,,57.512074,-5.400617
262,Seana Bhraigh,20,436N,926,3038,NH281878,NH 28183 87872,251,NH282860,675,rock on edge of cliff by windshelter,,57.84733,-4.89662
263,Meall a' Choire Leith,51,OL48E 378E,925.6,3037,NN612438,NN 61251 43874,150.5,NN 6144 4308,775.1,rock c 20m S of cairn,,56.566312,-4.259625
264,Buachaille Etive Beag - Stob Coire Raineach,41,384,925,3035,NN191548,NN 19139 54791,177,NN187544,748,cairn,,56.649929,-4.951685
265,Creag Pitridh,34 42,OL50 OL55 393 401,924,3031,NN487814,NN 48754 81450,105,NN488811,819,cairn,,56.899713,-4.484955
266,An Coileachan,20,436S,923.9,3031,NH241680,NH 24174 68012,148.3,NH 2372 6859,775.6,flat rock 7m NW of cairn,,57.667625,-4.949498
267,Sgurr nan Each,20,436S,923,3028,NH184697,NH 18467 69758,109,NH184705,814,cairn,probably higher than cairn 120m N at NH 18480 69875,57.681017,-5.046351
268,Beinn Alligin - Tom na Gruagaich,19 24,433,922,3025,NG859601,NG 85961 60141,155,NG858606,767,cairn and trig point on plinth,,57.580519,-5.581912
269,An Socach,25 33,414N,921,3022,NH088229,NH 08820 22986,123,NH078228,798,cairn,,57.257533,-5.171293
270,Carn Sgulain,35,OL56 402,920.3,3019,NH683058,NH 68304 05811,71.5,NH 6713 0563,848.8,ground 7m N of cairn,cairn 150m ENE at NH 68432 05880 is lower,57.124371,-4.176986
271,Sgiath Chuil,51,OL48W 378W,920,3018,NN462317,NN 46293 31785,311,NN454325,609,cairn on outcrop,,56.453149,-4.495653
272,Gairich,33,399,919,3015,NN025995,NN 02593 99570,552,NN002987,367,cairn,,57.044879,-5.255827
273,Ruadh Stac Mor,19,433 435S,918.7,3014,NH018756,NH 01856 75643,167,NH016754,752,small cairn 8m SSE of trig point,,57.726781,-5.329288
274,Creag nan Damh,33,414S,918,3012,NG983112,NG 98374 11190,189,NG990108,729,cairn,cairn 20m W at NG 98352 11192 may be as high,57.147263,-5.334597
275,Meall na Teanga,34,400,918,3012,NN220924,NN 22027 92465,303,NN223936,615,small pile of stones,small mound 15m S is as high; rocks by cairn 70m S at NN 22026 92400 are c 50cm lower,56.989003,-4.930938
276,A' Ghlas-bheinn,25 33,414N,918,3012,NH008231,NH 00825 23094,407,NH014214,511,cairn,,57.25509,-5.303687
277,Sgurr a' Mhadaidh,32,411,918,3012,NG446235,NG 44704 23500,71,NG446234,847,cairn,,57.230868,-6.231947
278,Geal-charn,42,OL50 393,917.1,3009,NN596782,NN 59646 78252,178,NN592766,739,rock 5m E of windshelter,cairn on E top at NN 59772 78288 is 0.6m lower,56.874433,-4.304519
279,Beinn a' Chleibh,50,OL39N 364N 377E,916.3,3006,NN250256,NN 25058 25598,141,NN256258,775,rock by middle one of three cairns,ground by cairn 155m NW at NN 24921 25679 is 2.8m lower; small cairn 70m E at NN 25123 25583 is also lower,56.390231,-4.835632
280,Ben Vane,56,OL39S 364S,915.76,3004,NN277098,NN 27758 09837,424,NN263096,492,rock outcrop near small cairn,note cairn at top of gully 35m E at NN 27790 09830 is 0.52m lower,56.249786,-4.781639
281,Carn Aosda,43,OL52N 387N,915.3,3003,NO133791,NO 13398 79155,120,NO127785,795,small embedded rock on SW edge of cairn,,56.895696,-3.423274
282,Beinn Teallach,34 41,400,914.6,3001,NN361859,NN 36139 85964,301,NN372871,614,rock 5m S of cairn,note this is the NE top; larger cairn on SW top (NN 36025 85905) is not the summit and is 0.6m lower,56.935928,-4.694757
