[
  {
    "number": 1,
    "regionNumber": "17E",
    "regionName": "Mull and Nearby Islands",
    "height": 761.6,
    "latitude": 56.444568,
    "longitude": -5.854288,
    "landrangerMaps": [
      "49"
    ],
    "explorerMaps": [
      "375E"
    ],
    "id": "3Rr0KVYk",
    "name": "Beinn Talaidh"
  },
  {
    "number": 2,
    "regionNumber": "18B",
    "regionName": "Sunart and Ardgour",
    "height": 760.6,
    "latitude": 56.7398,
    "longitude": -5.443523,
    "landrangerMaps": [
      "40"
    ],
    "explorerMaps": [
      "391"
    ],
    "id": "DlrwXkmQ",
    "name": "Sgurr a' Chaorainn"
  },
  {
    "number": 3,
    "regionNumber": "1A",
    "regionName": "Loch Tay to Perth",
    "height": 759.0,
    "latitude": 56.491391,
    "longitude": -4.06498,
    "landrangerMaps": [
      "51",
      "52"
    ],
    "explorerMaps": [
      "OL48E",
      "378E"
    ],
    "id": "2VjxbGrQ",
    "name": "Shee of Ardtalnaig [Ciste Buide a' Claidheimh]"
  },
  {
    "number": 4,
    "regionNumber": "10A",
    "regionName": "Glen Shiel to Loch Hourn and Loch Quoich",
    "height": 759.0,
    "latitude": 57.17319,
    "longitude": -5.582876,
    "landrangerMaps": [
      "33"
    ],
    "explorerMaps": [
      "413N",
      "413S"
    ],
    "id": "ZGjOqMry",
    "name": "Beinn a' Chapuill"
  },
  {
    "number": 5,
    "regionNumber": "16B",
    "regionName": "Durness to Loch Shin",
    "height": 758.5,
    "latitude": 58.310361,
    "longitude": -4.745739,
    "landrangerMaps": [
      "16"
    ],
    "explorerMaps": [
      "447S"
    ],
    "id": "1Vj2Ebm2",
    "name": "Carn an Tionail"
  },
  {
    "number": 6,
    "regionNumber": "20A",
    "regionName": "Jura, Scarba and Colonsay",
    "height": 757.0,
    "latitude": 55.901671,
    "longitude": -5.979362,
    "landrangerMaps": [
      "61"
    ],
    "explorerMaps": [
      "355S"
    ],
    "id": "1Xr3L3m8",
    "name": "Beinn Shiantaidh"
  },
  {
    "number": 7,
    "regionNumber": "9B",
    "regionName": "Glen Albyn and the Monadh Liath",
    "height": 756.0,
    "latitude": 57.047149,
    "longitude": -4.180755,
    "landrangerMaps": [
      "35"
    ],
    "explorerMaps": [
      "OL56",
      "402"
    ],
    "id": "Z1jPV3r2",
    "name": "Creag Dhubh"
  },
  {
    "number": 8,
    "regionNumber": "21A",
    "regionName": "Tomintoul to Banff",
    "height": 755.0,
    "latitude": 57.335662,
    "longitude": -3.160669,
    "landrangerMaps": [
      "37"
    ],
    "explorerMaps": [
      "OL62W",
      "420W"
    ],
    "id": "NVmVN6mw",
    "name": "Cook's Cairn"
  },
  {
    "number": 9,
    "regionNumber": "1C",
    "regionName": "Loch Lomond to Strathyre",
    "height": 753.6,
    "latitude": 56.376801,
    "longitude": -4.444527,
    "landrangerMaps": [
      "51"
    ],
    "explorerMaps": [
      "OL46N",
      "365N"
    ],
    "id": "aBjZNKjM",
    "name": "The Stob"
  },
  {
    "number": 10,
    "regionNumber": "16E",
    "regionName": "Scourie to Lairg",
    "height": 750.0,
    "latitude": 58.22072,
    "longitude": -4.820035,
    "landrangerMaps": [
      "15"
    ],
    "explorerMaps": [
      "440N",
      "442E"
    ],
    "id": "b1mDB9Y8",
    "name": "Meallan a' Chuail"
  },
  {
    "number": 11,
    "regionNumber": "10C",
    "regionName": "Loch Arkaig to Glen Moriston",
    "height": 749.0,
    "latitude": 57.007762,
    "longitude": -5.084898,
    "landrangerMaps": [
      "34"
    ],
    "explorerMaps": [
      "399"
    ],
    "id": "AdrJVzrW",
    "name": "Sgurr Choinnich [Sgurr Choinich]"
  },
  {
    "number": 12,
    "regionNumber": "14B",
    "regionName": "The Fannaichs",
    "height": 749.0,
    "latitude": 57.687543,
    "longitude": -5.189231,
    "landrangerMaps": [
      "19"
    ],
    "explorerMaps": [
      "435S"
    ],
    "id": "D6reApry",
    "name": "Groban"
  },
  {
    "number": 13,
    "regionNumber": "21A",
    "regionName": "Tomintoul to Banff",
    "height": 749.0,
    "latitude": 57.138557,
    "longitude": -3.098856,
    "landrangerMaps": [
      "37"
    ],
    "explorerMaps": [
      "OL59W",
      "405W"
    ],
    "id": "MEmqRkjJ",
    "name": "Mona Gowan"
  },
  {
    "number": 14,
    "regionNumber": "28B",
    "regionName": "The River Tweed to the English Border",
    "height": 748.0,
    "latitude": 55.546234,
    "longitude": -3.502694,
    "landrangerMaps": [
      "72"
    ],
    "explorerMaps": [
      "336"
    ],
    "id": "nNrGzpY4",
    "name": "Culter Fell"
  },
  {
    "number": 15,
    "regionNumber": "4B",
    "regionName": "Loch Treig to Loch Ericht",
    "height": 747.2,
    "latitude": 56.909846,
    "longitude": -4.525927,
    "landrangerMaps": [
      "34",
      "42"
    ],
    "explorerMaps": [
      "OL50",
      "OL55",
      "393",
      "401"
    ],
    "id": "l8rvZ5rG",
    "name": "Binnein Shuas"
  },
  {
    "number": 16,
    "regionNumber": "1C",
    "regionName": "Loch Lomond to Strathyre",
    "height": 747.0,
    "latitude": 56.301077,
    "longitude": -4.613679,
    "landrangerMaps": [
      "50",
      "56"
    ],
    "explorerMaps": [
      "OL39N",
      "364N"
    ],
    "id": "RVY4WBjJ",
    "name": "Meall Mor"
  },
  {
    "number": 17,
    "regionNumber": "2A",
    "regionName": "Loch Rannoch to Glen Lyon",
    "height": 745.0,
    "latitude": 56.627431,
    "longitude": -4.317252,
    "landrangerMaps": [
      "42",
      "51"
    ],
    "explorerMaps": [
      "OL48E",
      "378E",
      "385E"
    ],
    "id": "EVjzvXjb",
    "name": "Meall a' Mhuic"
  },
  {
    "number": 18,
    "regionNumber": "1D",
    "regionName": "Inveraray to Crianlarich",
    "height": 744.0,
    "latitude": 56.375523,
    "longitude": -4.85848,
    "landrangerMaps": [
      "50"
    ],
    "explorerMaps": [
      "OL39N",
      "364N"
    ],
    "id": "JEjQVyYa",
    "name": "Meall nan Gabhar"
  },
  {
    "number": 19,
    "regionNumber": "7A",
    "regionName": "Braemar to Montrose",
    "height": 744.0,
    "latitude": 56.750869,
    "longitude": -3.363104,
    "landrangerMaps": [
      "43"
    ],
    "explorerMaps": [
      "OL52S",
      "387S"
    ],
    "id": "p5moRer4",
    "name": "Mount Blair"
  },
  {
    "number": 20,
    "regionNumber": "10D",
    "regionName": "Mallaig to Fort William",
    "height": 744.0,
    "latitude": 56.893406,
    "longitude": -5.142272,
    "landrangerMaps": [
      "41"
    ],
    "explorerMaps": [
      "392",
      "399"
    ],
    "id": "9RmR62m8",
    "name": "Druim Fada"
  },
  {
    "number": 21,
    "regionNumber": "28B",
    "regionName": "The River Tweed to the English Border",
    "height": 744.0,
    "latitude": 55.571878,
    "longitude": -3.185972,
    "landrangerMaps": [
      "73"
    ],
    "explorerMaps": [
      "337"
    ],
    "id": "3ArXdLr1",
    "name": "Dun Rig"
  },
  {
    "number": 22,
    "regionNumber": "8B",
    "regionName": "Cairngorms",
    "height": 743.0,
    "latitude": 57.069283,
    "longitude": -3.159515,
    "landrangerMaps": [
      "37",
      "44"
    ],
    "explorerMaps": [
      "OL59W",
      "405W"
    ],
    "id": "RKjABQYx",
    "name": "Geallaig Hill"
  },
  {
    "number": 23,
    "regionNumber": "9B",
    "regionName": "Glen Albyn and the Monadh Liath",
    "height": 743.0,
    "latitude": 57.078506,
    "longitude": -4.206126,
    "landrangerMaps": [
      "35"
    ],
    "explorerMaps": [
      "OL56",
      "402"
    ],
    "id": "07YyZyr5",
    "name": "Creag Liath"
  },
  {
    "number": 24,
    "regionNumber": "15B",
    "regionName": "Loch Vaich to Moray Firth",
    "height": 743.0,
    "latitude": 57.74661,
    "longitude": -4.608978,
    "landrangerMaps": [
      "20"
    ],
    "explorerMaps": [
      "437S"
    ],
    "id": "kXr1LzYL",
    "name": "Beinn nan Eun"
  },
  {
    "number": 25,
    "regionNumber": "16F",
    "regionName": "Lochinver to Ullapool",
    "height": 743.0,
    "latitude": 57.986541,
    "longitude": -5.225736,
    "landrangerMaps": [
      "15"
    ],
    "explorerMaps": [
      "439W"
    ],
    "id": "GojNBoj2",
    "name": "Ben Mor Coigach [Ben More Coigach] [Beinn Mhor na Coigich]"
  },
  {
    "number": 26,
    "regionNumber": "3A",
    "regionName": "Loch Leven to Rannoch Station",
    "height": 742.0,
    "latitude": 56.688824,
    "longitude": -5.062895,
    "landrangerMaps": [
      "41"
    ],
    "explorerMaps": [
      "384"
    ],
    "id": "04m82eYL",
    "name": "Pap of Glencoe"
  },
  {
    "number": 27,
    "regionNumber": "4A",
    "regionName": "Fort William to Loch Treig & Loch Leven",
    "height": 742.0,
    "latitude": 56.857671,
    "longitude": -4.785131,
    "landrangerMaps": [
      "41"
    ],
    "explorerMaps": [
      "392"
    ],
    "id": "azY93Lmn",
    "name": "Cnap Cruinn"
  },
  {
    "number": 28,
    "regionNumber": "17E",
    "regionName": "Mull and Nearby Islands",
    "height": 741.0,
    "latitude": 56.440119,
    "longitude": -5.788867,
    "landrangerMaps": [
      "49"
    ],
    "explorerMaps": [
      "375E"
    ],
    "id": "qajgX0Yk",
    "name": "Sgurr Dearg"
  },
  {
    "number": 29,
    "regionNumber": "19C",
    "regionName": "Loch Fyne to Bute and the Firth of Clyde",
    "height": 741.0,
    "latitude": 56.072614,
    "longitude": -5.041608,
    "landrangerMaps": [
      "56"
    ],
    "explorerMaps": [
      "OL37N",
      "363N"
    ],
    "id": "A3j6xVrO",
    "name": "Beinn Mhor"
  },
  {
    "number": 30,
    "regionNumber": "7A",
    "regionName": "Braemar to Montrose",
    "height": 740.0,
    "latitude": 56.795693,
    "longitude": -3.29917,
    "landrangerMaps": [
      "44"
    ],
    "explorerMaps": [
      "OL53S",
      "388S"
    ],
    "id": "3Pr7O1rk",
    "name": "Badandun Hill"
  },
  {
    "number": 31,
    "regionNumber": "3A",
    "regionName": "Loch Leven to Rannoch Station",
    "height": 739.0,
    "latitude": 56.676917,
    "longitude": -4.672645,
    "landrangerMaps": [
      "41"
    ],
    "explorerMaps": [
      "385W"
    ],
    "id": "1grndVjK",
    "name": "Stob na Cruaiche"
  },
  {
    "number": 32,
    "regionNumber": "17C",
    "regionName": "South-East Skye and Scalpay",
    "height": 739.0,
    "latitude": 57.236149,
    "longitude": -5.709427,
    "landrangerMaps": [
      "33"
    ],
    "explorerMaps": [
      "412",
      "413N"
    ],
    "id": "RVYpGxj6",
    "name": "Sgurr na Coinnich"
  },
  {
    "number": 33,
    "regionNumber": "18C",
    "regionName": "Morvern and Kingairloch",
    "height": 739.0,
    "latitude": 56.603062,
    "longitude": -5.587346,
    "landrangerMaps": [
      "49"
    ],
    "explorerMaps": [
      "383E"
    ],
    "id": "8AjBvnj5",
    "name": "Beinn Mheadhoin"
  },
  {
    "number": 34,
    "regionNumber": "15B",
    "regionName": "Loch Vaich to Moray Firth",
    "height": 738.0,
    "latitude": 57.736192,
    "longitude": -4.495456,
    "landrangerMaps": [
      "20"
    ],
    "explorerMaps": [
      "437S"
    ],
    "id": "PEmdX8mW",
    "name": "Meall Mor"
  },
  {
    "number": 35,
    "regionNumber": "13B",
    "regionName": "Applecross to Achnasheen",
    "height": 736.0,
    "latitude": 57.512958,
    "longitude": -5.493208,
    "landrangerMaps": [
      "25"
    ],
    "explorerMaps": [
      "428N",
      "429"
    ],
    "id": "9KYMkVm7",
    "name": "Beinn na h-Eaglaise"
  },
  {
    "number": 36,
    "regionNumber": "17B",
    "regionName": "Minginish and the Cuillin Hills",
    "height": 736.0,
    "latitude": 57.249179,
    "longitude": -6.133477,
    "landrangerMaps": [
      "32"
    ],
    "explorerMaps": [
      "411"
    ],
    "id": "3XraXXYD",
    "name": "Marsco"
  },
  {
    "number": 37,
    "regionNumber": "18B",
    "regionName": "Sunart and Ardgour",
    "height": 736.0,
    "latitude": 56.716737,
    "longitude": -5.409352,
    "landrangerMaps": [
      "40"
    ],
    "explorerMaps": [
      "391"
    ],
    "id": "gejbaKmK",
    "name": "Beinn Bheag"
  },
  {
    "number": 38,
    "regionNumber": "18B",
    "regionName": "Sunart and Ardgour",
    "height": 734.6,
    "latitude": 56.73819,
    "longitude": -5.3069,
    "landrangerMaps": [
      "40"
    ],
    "explorerMaps": [
      "391"
    ],
    "id": "9xrkGvr2",
    "name": "Druim na Sgriodain"
  },
  {
    "number": 39,
    "regionNumber": "1E",
    "regionName": "Loch Long to Loch Lomond",
    "height": 734.0,
    "latitude": 56.135852,
    "longitude": -4.752523,
    "landrangerMaps": [
      "56"
    ],
    "explorerMaps": [
      "OL39S",
      "364S"
    ],
    "id": "MRmKdDje",
    "name": "Doune Hill"
  },
  {
    "number": 40,
    "regionNumber": "20A",
    "regionName": "Jura, Scarba and Colonsay",
    "height": 733.0,
    "latitude": 55.888434,
    "longitude": -6.017499,
    "landrangerMaps": [
      "60",
      "61"
    ],
    "explorerMaps": [
      "355S"
    ],
    "id": "K2r5wnjR",
    "name": "Beinn a' Chaolais"
  },
  {
    "number": 41,
    "regionNumber": "10C",
    "regionName": "Loch Arkaig to Glen Moriston",
    "height": 732.0,
    "latitude": 56.981951,
    "longitude": -5.010604,
    "landrangerMaps": [
      "34"
    ],
    "explorerMaps": [
      "399",
      "400"
    ],
    "id": "QgmEDyrw",
    "name": "Glas Bheinn"
  },
  {
    "number": 42,
    "regionNumber": "13B",
    "regionName": "Applecross to Achnasheen",
    "height": 732.0,
    "latitude": 57.440171,
    "longitude": -5.52729,
    "landrangerMaps": [
      "24"
    ],
    "explorerMaps": [
      "428S"
    ],
    "id": "LvmLGzrx",
    "name": "Sgurr a' Gharaidh"
  },
  {
    "number": 43,
    "regionNumber": "16B",
    "regionName": "Durness to Loch Shin",
    "height": 732.0,
    "latitude": 58.344371,
    "longitude": -4.781128,
    "landrangerMaps": [
      "9"
    ],
    "explorerMaps": [
      "445"
    ],
    "id": "83mW8ejx",
    "name": "Sabhal Beag"
  },
  {
    "number": 44,
    "regionNumber": "17C",
    "regionName": "South-East Skye and Scalpay",
    "height": 732.0,
    "latitude": 57.237269,
    "longitude": -5.976682,
    "landrangerMaps": [
      "32"
    ],
    "explorerMaps": [
      "411",
      "412"
    ],
    "id": "1dYlvLmN",
    "name": "Beinn na Caillich"
  },
  {
    "number": 45,
    "regionNumber": "17C",
    "regionName": "South-East Skye and Scalpay",
    "height": 732.0,
    "latitude": 57.242915,
    "longitude": -5.696791,
    "landrangerMaps": [
      "33"
    ],
    "explorerMaps": [
      "412",
      "413N"
    ],
    "id": "3Rr0EVmk",
    "name": "Beinn na Caillich"
  },
  {
    "number": 46,
    "regionNumber": "19C",
    "regionName": "Loch Fyne to Bute and the Firth of Clyde",
    "height": 732.0,
    "latitude": 56.224425,
    "longitude": -4.928565,
    "landrangerMaps": [
      "56"
    ],
    "explorerMaps": [
      "OL37N",
      "OL39S",
      "363N",
      "364S"
    ],
    "id": "DlrwdkmQ",
    "name": "Stob an Eas"
  },
  {
    "number": 47,
    "regionNumber": "27C",
    "regionName": "The Glenkens to Annandale",
    "height": 732.0,
    "latitude": 55.389863,
    "longitude": -3.737528,
    "landrangerMaps": [
      "71",
      "78"
    ],
    "explorerMaps": [
      "329"
    ],
    "id": "2VjxQGYQ",
    "name": "Green Lowther"
  },
  {
    "number": 48,
    "regionNumber": "16F",
    "regionName": "Lochinver to Ullapool",
    "height": 731.0,
    "latitude": 58.115523,
    "longitude": -5.136778,
    "landrangerMaps": [
      "15"
    ],
    "explorerMaps": [
      "442W"
    ],
    "id": "ZGjOGMjy",
    "name": "Suilven"
  },
  {
    "number": 49,
    "regionNumber": "17B",
    "regionName": "Minginish and the Cuillin Hills",
    "height": 731.0,
    "latitude": 57.279543,
    "longitude": -6.115815,
    "landrangerMaps": [
      "32"
    ],
    "explorerMaps": [
      "411"
    ],
    "id": "1Vj2WbY2",
    "name": "Beinn Dearg Mhor"
  },
  {
    "number": 50,
    "regionNumber": "1A",
    "regionName": "Loch Tay to Perth",
    "height": 729.3,
    "latitude": 56.48786,
    "longitude": -3.890049,
    "landrangerMaps": [
      "52"
    ],
    "explorerMaps": [
      "379W"
    ],
    "id": "1Xr3l3m8",
    "name": "Beinn na Gainimh"
  },
  {
    "number": 51,
    "regionNumber": "1C",
    "regionName": "Loch Lomond to Strathyre",
    "height": 729.0,
    "latitude": 56.225006,
    "longitude": -4.461986,
    "landrangerMaps": [
      "57"
    ],
    "explorerMaps": [
      "OL46S",
      "365S"
    ],
    "id": "Z1jPG3m2",
    "name": "Ben Venue"
  },
  {
    "number": 52,
    "regionNumber": "15A",
    "regionName": "Loch Broom to Strath Oykel",
    "height": 729.0,
    "latitude": 57.767158,
    "longitude": -4.99277,
    "landrangerMaps": [
      "20"
    ],
    "explorerMaps": [
      "436N",
      "436S"
    ],
    "id": "NVmVM6rw",
    "name": "Meall Doire Faid"
  },
  {
    "number": 53,
    "regionNumber": "24B",
    "regionName": "Harris and Nearby Islands",
    "height": 729.0,
    "latitude": 57.972949,
    "longitude": -6.871156,
    "landrangerMaps": [
      "13",
      "14"
    ],
    "explorerMaps": [
      "456"
    ],
    "id": "aBjZBKjM",
    "name": "Uisgneabhal Mor [Uisgnaval Mor]"
  },
  {
    "number": 54,
    "regionNumber": "11A",
    "regionName": "Loch Duich to Cannich",
    "height": 727.8,
    "latitude": 57.278909,
    "longitude": -5.328621,
    "landrangerMaps": [
      "25",
      "33"
    ],
    "explorerMaps": [
      "414N"
    ],
    "id": "b1mDd9m8",
    "name": "Carnan Cruithneachd"
  },
  {
    "number": 55,
    "regionNumber": "10D",
    "regionName": "Mallaig to Fort William",
    "height": 727.0,
    "latitude": 56.953511,
    "longitude": -5.209633,
    "landrangerMaps": [
      "41"
    ],
    "explorerMaps": [
      "399"
    ],
    "id": "AdrJozmW",
    "name": "Mullach Coire nan Geur-oirean"
  },
  {
    "number": 56,
    "regionNumber": "3B",
    "regionName": "Loch Linnhe to Loch Etive",
    "height": 726.0,
    "latitude": 56.517763,
    "longitude": -5.238548,
    "landrangerMaps": [
      "50"
    ],
    "explorerMaps": [
      "376",
      "377W"
    ],
    "id": "D6reXpYy",
    "name": "Mam Hael [Beinn Bhreac]"
  },
  {
    "number": 57,
    "regionNumber": "13A",
    "regionName": "Loch Torridon to Loch Maree",
    "height": 725.2,
    "latitude": 57.616412,
    "longitude": -5.466419,
    "landrangerMaps": [
      "19"
    ],
    "explorerMaps": [
      "433"
    ],
    "id": "MEmqXkrJ",
    "name": "Beinn a' Chearcaill"
  },
  {
    "number": 58,
    "regionNumber": "18B",
    "regionName": "Sunart and Ardgour",
    "height": 723.0,
    "latitude": 56.815253,
    "longitude": -5.410255,
    "landrangerMaps": [
      "40"
    ],
    "explorerMaps": [
      "391"
    ],
    "id": "nNrGQpj4",
    "name": "Meall nan Damh"
  },
  {
    "number": 59,
    "regionNumber": "14A",
    "regionName": "Loch Maree to Loch Broom",
    "height": 722.0,
    "latitude": 57.716671,
    "longitude": -5.435155,
    "landrangerMaps": [
      "19"
    ],
    "explorerMaps": [
      "433"
    ],
    "id": "l8rvG5mG",
    "name": "Meall Mheinnidh"
  },
  {
    "number": 60,
    "regionNumber": "21A",
    "regionName": "Tomintoul to Banff",
    "height": 722.0,
    "latitude": 57.299116,
    "longitude": -3.488246,
    "landrangerMaps": [
      "36"
    ],
    "explorerMaps": [
      "OL61S",
      "419S"
    ],
    "id": "RVY40BYJ",
    "name": "Creagan a' Chaise"
  },
  {
    "number": 61,
    "regionNumber": "20C",
    "regionName": "Arran and Holy Island",
    "height": 721.4,
    "latitude": 55.63316,
    "longitude": -5.334672,
    "landrangerMaps": [
      "62",
      "69"
    ],
    "explorerMaps": [
      "361N"
    ],
    "id": "EVjzQXmb",
    "name": "Beinn Bharrain - Mullach Buidhe"
  },
  {
    "number": 62,
    "regionNumber": "18B",
    "regionName": "Sunart and Ardgour",
    "height": 721.0,
    "latitude": 56.787131,
    "longitude": -5.416512,
    "landrangerMaps": [
      "40"
    ],
    "explorerMaps": [
      "391"
    ],
    "id": "JEjQgyra",
    "name": "Stob Mhic Bheathain"
  },
  {
    "number": 63,
    "regionNumber": "21A",
    "regionName": "Tomintoul to Banff",
    "height": 721.0,
    "latitude": 57.297344,
    "longitude": -2.977049,
    "landrangerMaps": [
      "37"
    ],
    "explorerMaps": [
      "OL62W",
      "420W"
    ],
    "id": "p5mo8ej4",
    "name": "The Buck"
  },
  {
    "number": 64,
    "regionNumber": "26A",
    "regionName": "Central Scotland from Dumbarton to Montrose",
    "height": 721.0,
    "latitude": 56.185684,
    "longitude": -3.769489,
    "landrangerMaps": [
      "58"
    ],
    "explorerMaps": [
      "366E"
    ],
    "id": "9RmRG2j8",
    "name": "Ben Cleuch"
  },
  {
    "number": 65,
    "regionNumber": "16E",
    "regionName": "Scourie to Lairg",
    "height": 720.0,
    "latitude": 58.334919,
    "longitude": -4.957715,
    "landrangerMaps": [
      "9"
    ],
    "explorerMaps": [
      "445"
    ],
    "id": "3ArX8Lr1",
    "name": "Ben Stack"
  },
  {
    "number": 66,
    "regionNumber": "1A",
    "regionName": "Loch Tay to Perth",
    "height": 719.0,
    "latitude": 56.419022,
    "longitude": -4.308646,
    "landrangerMaps": [
      "51"
    ],
    "explorerMaps": [
      "OL46N",
      "365N"
    ],
    "id": "RKjADQmx",
    "name": "Meall Buidhe"
  },
  {
    "number": 67,
    "regionNumber": "17A",
    "regionName": "North Skye and Raasay",
    "height": 719.0,
    "latitude": 57.507106,
    "longitude": -6.183079,
    "landrangerMaps": [
      "23"
    ],
    "explorerMaps": [
      "408",
      "409"
    ],
    "id": "07YyQyY5",
    "name": "The Storr"
  },
  {
    "number": 68,
    "regionNumber": "10D",
    "regionName": "Mallaig to Fort William",
    "height": 718.0,
    "latitude": 56.942084,
    "longitude": -5.508599,
    "landrangerMaps": [
      "40"
    ],
    "explorerMaps": [
      "398E"
    ],
    "id": "kXr1KzjL",
    "name": "An Stac"
  },
  {
    "number": 69,
    "regionNumber": "17E",
    "regionName": "Mull and Nearby Islands",
    "height": 717.0,
    "latitude": 56.375079,
    "longitude": -5.881786,
    "landrangerMaps": [
      "49"
    ],
    "explorerMaps": [
      "375E"
    ],
    "id": "GojNgoY2",
    "name": "Ben Buie"
  },
  {
    "number": 70,
    "regionNumber": "27B",
    "regionName": "Carrick and Galloway",
    "height": 717.0,
    "latitude": 55.062738,
    "longitude": -4.451543,
    "landrangerMaps": [
      "77"
    ],
    "explorerMaps": [
      "319"
    ],
    "id": "04m8qejL",
    "name": "Lamachan Hill"
  },
  {
    "number": 71,
    "regionNumber": "3B",
    "regionName": "Loch Linnhe to Loch Etive",
    "height": 715.0,
    "latitude": 56.482385,
    "longitude": -5.217221,
    "landrangerMaps": [
      "50"
    ],
    "explorerMaps": [
      "377W"
    ],
    "id": "azY9qLYn",
    "name": "Beinn Mheadhonach"
  },
  {
    "number": 72,
    "regionNumber": "8B",
    "regionName": "Cairngorms",
    "height": 715.0,
    "latitude": 57.172591,
    "longitude": -3.414366,
    "landrangerMaps": [
      "36"
    ],
    "explorerMaps": [
      "OL58N",
      "404N"
    ],
    "id": "qajgR0mk",
    "name": "Cnap Chaochan Aitinn"
  },
  {
    "number": 73,
    "regionNumber": "1E",
    "regionName": "Loch Long to Loch Lomond",
    "height": 713.0,
    "latitude": 56.093338,
    "longitude": -4.754424,
    "landrangerMaps": [
      "56"
    ],
    "explorerMaps": [
      "OL38",
      "347"
    ],
    "id": "A3j6qVmO",
    "name": "Beinn Chaorach"
  },
  {
    "number": 74,
    "regionNumber": "16D",
    "regionName": "Altnaharra to Dornoch",
    "height": 713.0,
    "latitude": 58.185691,
    "longitude": -4.2153,
    "landrangerMaps": [
      "16"
    ],
    "explorerMaps": [
      "443"
    ],
    "id": "3Pr7q1jk",
    "name": "Creag Mhor"
  },
  {
    "number": 75,
    "regionNumber": "1A",
    "regionName": "Loch Tay to Perth",
    "height": 712.0,
    "latitude": 56.436799,
    "longitude": -4.152193,
    "landrangerMaps": [
      "51"
    ],
    "explorerMaps": [
      "OL47W",
      "368W"
    ],
    "id": "1grnoVmK",
    "name": "Creag Ruadh"
  },
  {
    "number": 76,
    "regionNumber": "14B",
    "regionName": "The Fannaichs",
    "height": 711.0,
    "latitude": 57.646754,
    "longitude": -5.118963,
    "landrangerMaps": [
      "19"
    ],
    "explorerMaps": [
      "435S"
    ],
    "id": "RVYpoxj6",
    "name": "Beinn nan Ramh"
  },
  {
    "number": 77,
    "regionNumber": "27A",
    "regionName": "Ayr to the River Clyde",
    "height": 711.0,
    "latitude": 55.591692,
    "longitude": -3.662551,
    "landrangerMaps": [
      "72"
    ],
    "explorerMaps": [
      "335"
    ],
    "id": "8AjBgnY5",
    "name": "Tinto"
  },
  {
    "number": 78,
    "regionNumber": "27B",
    "regionName": "Carrick and Galloway",
    "height": 711.0,
    "latitude": 54.975466,
    "longitude": -4.343328,
    "landrangerMaps": [
      "83"
    ],
    "explorerMaps": [
      "319"
    ],
    "id": "PEmdN8YW",
    "name": "Cairnsmore of Fleet"
  },
  {
    "number": 79,
    "regionNumber": "10A",
    "regionName": "Glen Shiel to Loch Hourn and Loch Quoich",
    "height": 710.7,
    "latitude": 57.117596,
    "longitude": -5.479103,
    "landrangerMaps": [
      "33"
    ],
    "explorerMaps": [
      "413S"
    ],
    "id": "9KYMJVr7",
    "name": "Druim Fada"
  },
  {
    "number": 80,
    "regionNumber": "10D",
    "regionName": "Mallaig to Fort William",
    "height": 710.0,
    "latitude": 56.925174,
    "longitude": -5.581422,
    "landrangerMaps": [
      "40"
    ],
    "explorerMaps": [
      "398E"
    ],
    "id": "3XraoXjD",
    "name": "Meith Bheinn"
  },
  {
    "number": 81,
    "regionNumber": "15B",
    "regionName": "Loch Vaich to Moray Firth",
    "height": 710.0,
    "latitude": 57.807749,
    "longitude": -4.673395,
    "landrangerMaps": [
      "20"
    ],
    "explorerMaps": [
      "437N"
    ],
    "id": "gejbKKYK",
    "name": "Beinn Tharsuinn"
  },
  {
    "number": 82,
    "regionNumber": "21A",
    "regionName": "Tomintoul to Banff",
    "height": 710.0,
    "latitude": 57.351039,
    "longitude": -3.431444,
    "landrangerMaps": [
      "36"
    ],
    "explorerMaps": [
      "OL61S",
      "419S"
    ],
    "id": "9xrk9vj2",
    "name": "Carn a' Ghille Chearr"
  },
  {
    "number": 83,
    "regionNumber": "1E",
    "regionName": "Loch Long to Loch Lomond",
    "height": 709.0,
    "latitude": 56.112762,
    "longitude": -4.785269,
    "landrangerMaps": [
      "56"
    ],
    "explorerMaps": [
      "OL38",
      "OL39S",
      "347",
      "364S"
    ],
    "id": "MRmKkDme",
    "name": "Beinn a' Mhanaich"
  },
  {
    "number": 84,
    "regionNumber": "3C",
    "regionName": "Glen Etive to Glen Lochy",
    "height": 709.0,
    "latitude": 56.492998,
    "longitude": -5.037967,
    "landrangerMaps": [
      "50"
    ],
    "explorerMaps": [
      "377W"
    ],
    "id": "K2r57njR",
    "name": "Beinn nan Lus"
  },
  {
    "number": 85,
    "regionNumber": "17C",
    "regionName": "South-East Skye and Scalpay",
    "height": 709.0,
    "latitude": 57.232593,
    "longitude": -5.998762,
    "landrangerMaps": [
      "32"
    ],
    "explorerMaps": [
      "411",
      "412"
    ],
    "id": "QgmEgyYw",
    "name": "Beinn Dearg Mhor"
  },
  {
    "number": 86,
    "regionNumber": "1B",
    "regionName": "Strathyre to Strathallan",
    "height": 708.3,
    "latitude": 56.34503,
    "longitude": -4.128955,
    "landrangerMaps": [
      "57"
    ],
    "explorerMaps": [
      "OL47W",
      "368W"
    ],
    "id": "LvmLJzYx",
    "name": "Creag na h-Eararuidh [Stuc na Cabaig]"
  },
  {
    "number": 87,
    "regionNumber": "11B",
    "regionName": "Glen Affric to Glen Moriston",
    "height": 706.0,
    "latitude": 57.216744,
    "longitude": -4.924349,
    "landrangerMaps": [
      "34"
    ],
    "explorerMaps": [
      "415"
    ],
    "id": "83mWJerx",
    "name": "Carn a' Chaochain"
  },
  {
    "number": 88,
    "regionNumber": "16C",
    "regionName": "Tongue to Wick and Helmsdale",
    "height": 706.0,
    "latitude": 58.234227,
    "longitude": -3.696726,
    "landrangerMaps": [
      "17"
    ],
    "explorerMaps": [
      "444E"
    ],
    "id": "1dYl1LrN",
    "name": "Morven"
  },
  {
    "number": 89,
    "regionNumber": "7B",
    "regionName": "Braemar to Montrose",
    "height": 705.0,
    "latitude": 56.911948,
    "longitude": -3.019778,
    "landrangerMaps": [
      "44"
    ],
    "explorerMaps": [
      "OL53N",
      "388N"
    ],
    "id": "3Rr0PVrk",
    "name": "Hunt Hill"
  },
  {
    "number": 90,
    "regionNumber": "12B",
    "regionName": "Killilan to Inverness",
    "height": 705.0,
    "latitude": 57.373247,
    "longitude": -5.171897,
    "landrangerMaps": [
      "25"
    ],
    "explorerMaps": [
      "429"
    ],
    "id": "DlrwDkmQ",
    "name": "An Cruachan"
  },
  {
    "number": 91,
    "regionNumber": "14B",
    "regionName": "The Fannaichs",
    "height": 705.0,
    "latitude": 57.595086,
    "longitude": -5.120594,
    "landrangerMaps": [
      "19"
    ],
    "explorerMaps": [
      "435S"
    ],
    "id": "2VjxJGrQ",
    "name": "Meall a' Chaorainn"
  },
  {
    "number": 92,
    "regionNumber": "16D",
    "regionName": "Altnaharra to Dornoch",
    "height": 705.0,
    "latitude": 58.215409,
    "longitude": -4.223263,
    "landrangerMaps": [
      "16"
    ],
    "explorerMaps": [
      "443"
    ],
    "id": "ZGjOgMjy",
    "name": "Ben Armine"
  },
  {
    "number": 93,
    "regionNumber": "16F",
    "regionName": "Lochinver to Ullapool",
    "height": 705.0,
    "latitude": 57.997286,
    "longitude": -5.225941,
    "landrangerMaps": [
      "15"
    ],
    "explorerMaps": [
      "439W"
    ],
    "id": "1Vj2Qbm2",
    "name": "Sgurr an Fhidhleir"
  },
  {
    "number": 94,
    "regionNumber": "17E",
    "regionName": "Mull and Nearby Islands",
    "height": 704.9,
    "latitude": 56.419301,
    "longitude": -5.936299,
    "landrangerMaps": [
      "48"
    ],
    "explorerMaps": [
      "375E",
      "375W"
    ],
    "id": "1Xr3q3j8",
    "name": "Corra-bheinn"
  },
  {
    "number": 95,
    "regionNumber": "1E",
    "regionName": "Loch Long to Loch Lomond",
    "height": 703.0,
    "latitude": 56.114637,
    "longitude": -4.732345,
    "landrangerMaps": [
      "56"
    ],
    "explorerMaps": [
      "OL38",
      "OL39S",
      "347",
      "364S"
    ],
    "id": "Z1jPJ3r2",
    "name": "Beinn Eich"
  },
  {
    "number": 96,
    "regionNumber": "19C",
    "regionName": "Loch Fyne to Bute and the Firth of Clyde",
    "height": 702.9,
    "latitude": 56.162687,
    "longitude": -4.964426,
    "landrangerMaps": [
      "56"
    ],
    "explorerMaps": [
      "OL37N",
      "363N"
    ],
    "id": "K2r57RjR",
    "name": "Beinn Lochain"
  },
  {
    "number": 97,
    "regionNumber": "7A",
    "regionName": "Braemar to Montrose",
    "height": 702.0,
    "latitude": 56.789265,
    "longitude": -3.374155,
    "landrangerMaps": [
      "43"
    ],
    "explorerMaps": [
      "OL52S",
      "387S"
    ],
    "id": "QgmEg8Yw",
    "name": "Duchray Hill [Mealna Letter]"
  },
  {
    "number": 98,
    "regionNumber": "17B",
    "regionName": "Minginish and the Cuillin Hills",
    "height": 702.0,
    "latitude": 57.240983,
    "longitude": -6.072284,
    "landrangerMaps": [
      "32"
    ],
    "explorerMaps": [
      "411"
    ],
    "id": "LvmLJbYx",
    "name": "Belig"
  },
  {
    "number": 99,
    "regionNumber": "17D",
    "regionName": "Canna, Rhum and Eigg",
    "height": 702.0,
    "latitude": 56.973392,
    "longitude": -6.317273,
    "landrangerMaps": [
      "39"
    ],
    "explorerMaps": [
      "397"
    ],
    "id": "83mWJWrx",
    "name": "Trollabhal [Trollaval] [Trallval]"
  },
  {
    "number": 100,
    "regionNumber": "17E",
    "regionName": "Mull and Nearby Islands",
    "height": 702.0,
    "latitude": 56.441972,
    "longitude": -5.992496,
    "landrangerMaps": [
      "47",
      "48"
    ],
    "explorerMaps": [
      "375W"
    ],
    "id": "1dYl1prN",
    "name": "Beinn Fhada"
  },
  {
    "number": 101,
    "regionNumber": "3C",
    "regionName": "Glen Etive to Glen Lochy",
    "height": 701.0,
    "latitude": 56.486703,
    "longitude": -4.976894,
    "landrangerMaps": [
      "50"
    ],
    "explorerMaps": [
      "377W"
    ],
    "id": "3Rr0PNrk",
    "name": "Meall Garbh"
  },
  {
    "number": 102,
    "regionNumber": "15A",
    "regionName": "Loch Broom to Strath Oykel",
    "height": 701.0,
    "latitude": 57.891733,
    "longitude": -4.704959,
    "landrangerMaps": [
      "20"
    ],
    "explorerMaps": [
      "437N",
      "440S"
    ],
    "id": "DlrwDAmQ",
    "name": "Carn a' Choin Deirg"
  },
  {
    "number": 103,
    "regionNumber": "18B",
    "regionName": "Sunart and Ardgour",
    "height": 701.0,
    "latitude": 56.722553,
    "longitude": -5.455353,
    "landrangerMaps": [
      "40"
    ],
    "explorerMaps": [
      "391"
    ],
    "id": "2VjxJLrQ",
    "name": "Sgurr nan Cnamh"
  },
  {
    "number": 104,
    "regionNumber": "27C",
    "regionName": "The Glenkens to Annandale",
    "height": 700.9,
    "latitude": 55.333086,
    "longitude": -4.133446,
    "landrangerMaps": [
      "71",
      "77"
    ],
    "explorerMaps": [
      "328S"
    ],
    "id": "ZGjOg4jy",
    "name": "Blackcraig Hill"
  },
  {
    "number": 105,
    "regionNumber": "10B",
    "regionName": "Knoydart to Glen Kingie",
    "height": 700.0,
    "latitude": 57.068164,
    "longitude": -5.449072,
    "landrangerMaps": [
      "33"
    ],
    "explorerMaps": [
      "413S"
    ],
    "id": "1Vj2Qym2",
    "name": "Slat Bheinn"
  },
  {
    "number": 106,
    "regionNumber": "11B",
    "regionName": "Glen Affric to Glen Moriston",
    "height": 699.0,
    "latitude": 57.264442,
    "longitude": -4.560048,
    "landrangerMaps": [
      "26"
    ],
    "explorerMaps": [
      "416S"
    ],
    "id": "1Xr3qnj8",
    "name": "Meall Fuar-mhonaidh"
  },
  {
    "number": 107,
    "regionNumber": "17E",
    "regionName": "Mull and Nearby Islands",
    "height": 698.0,
    "latitude": 56.381992,
    "longitude": -5.819701,
    "landrangerMaps": [
      "49"
    ],
    "explorerMaps": [
      "375E"
    ],
    "id": "Z1jPJRr2",
    "name": "Creach-Beinn [Creach Beinn]"
  },
  {
    "number": 108,
    "regionNumber": "27C",
    "regionName": "The Glenkens to Annandale",
    "height": 698.0,
    "latitude": 55.287958,
    "longitude": -4.174383,
    "landrangerMaps": [
      "77"
    ],
    "explorerMaps": [
      "328S"
    ],
    "id": "NVmVGZjw",
    "name": "Windy Standard"
  },
  {
    "number": 109,
    "regionNumber": "15B",
    "regionName": "Loch Vaich to Moray Firth",
    "height": 697.0,
    "latitude": 57.743371,
    "longitude": -4.670774,
    "landrangerMaps": [
      "20"
    ],
    "explorerMaps": [
      "437S"
    ],
    "id": "aBjZGlYM",
    "name": "Carn Loch nan Amhaichean"
  },
  {
    "number": 110,
    "regionNumber": "27C",
    "regionName": "The Glenkens to Annandale",
    "height": 697.0,
    "latitude": 55.281469,
    "longitude": -3.593082,
    "landrangerMaps": [
      "78"
    ],
    "explorerMaps": [
      "321",
      "329"
    ],
    "id": "b1mDgXr8",
    "name": "Queensberry"
  },
  {
    "number": 111,
    "regionNumber": "12A",
    "regionName": "Kyle of Lochalsh to Garve",
    "height": 695.0,
    "latitude": 57.417413,
    "longitude": -4.967457,
    "landrangerMaps": [
      "25"
    ],
    "explorerMaps": [
      "430"
    ],
    "id": "AdrJgvmW",
    "name": "Beinn na Muice"
  },
  {
    "number": 112,
    "regionNumber": "14A",
    "regionName": "Loch Maree to Loch Broom",
    "height": 692.0,
    "latitude": 57.641228,
    "longitude": -5.298727,
    "landrangerMaps": [
      "19"
    ],
    "explorerMaps": [
      "435S"
    ],
    "id": "D6re9dry",
    "name": "Beinn a' Mhuinidh"
  },
  {
    "number": 113,
    "regionNumber": "15B",
    "regionName": "Loch Vaich to Moray Firth",
    "height": 692.0,
    "latitude": 57.781412,
    "longitude": -4.345262,
    "landrangerMaps": [
      "21"
    ],
    "explorerMaps": [
      "438W"
    ],
    "id": "MEmqqvmJ",
    "name": "Beinn Tharsuinn"
  },
  {
    "number": 114,
    "regionNumber": "27B",
    "regionName": "Carrick and Galloway",
    "height": 692.0,
    "latitude": 55.149868,
    "longitude": -4.427314,
    "landrangerMaps": [
      "77"
    ],
    "explorerMaps": [
      "318"
    ],
    "id": "nNrG7Wr4",
    "name": "Mullwharchar"
  },
  {
    "number": 115,
    "regionNumber": "28B",
    "regionName": "The River Tweed to the English Border",
    "height": 692.0,
    "latitude": 55.35621,
    "longitude": -3.263528,
    "landrangerMaps": [
      "79"
    ],
    "explorerMaps": [
      "330"
    ],
    "id": "l8rv9qYG",
    "name": "Ettrick Pen"
  },
  {
    "number": 116,
    "regionNumber": "1A",
    "regionName": "Loch Tay to Perth",
    "height": 690.3,
    "latitude": 56.552201,
    "longitude": -3.812769,
    "landrangerMaps": [
      "52"
    ],
    "explorerMaps": [
      "379W"
    ],
    "id": "RVY4XOYJ",
    "name": "Meall Dearg"
  },
  {
    "number": 117,
    "regionNumber": "3B",
    "regionName": "Loch Linnhe to Loch Etive",
    "height": 690.0,
    "latitude": 56.510842,
    "longitude": -5.22017,
    "landrangerMaps": [
      "50"
    ],
    "explorerMaps": [
      "377W"
    ],
    "id": "EVjz97mb",
    "name": "Beinn Molurgainn"
  },
  {
    "number": 118,
    "regionNumber": "27C",
    "regionName": "The Glenkens to Annandale",
    "height": 689.0,
    "latitude": 55.327237,
    "longitude": -3.679204,
    "landrangerMaps": [
      "78"
    ],
    "explorerMaps": [
      "329"
    ],
    "id": "JEjQaBja",
    "name": "Ballencleuch Law"
  },
  {
    "number": 119,
    "regionNumber": "16B",
    "regionName": "Durness to Loch Shin",
    "height": 688.9,
    "latitude": 58.302109,
    "longitude": -4.721409,
    "landrangerMaps": [
      "16"
    ],
    "explorerMaps": [
      "447S"
    ],
    "id": "p5moqzY4",
    "name": "Beinn Direach"
  },
  {
    "number": 120,
    "regionNumber": "1C",
    "regionName": "Loch Lomond to Strathyre",
    "height": 688.0,
    "latitude": 56.316393,
    "longitude": -4.512064,
    "landrangerMaps": [
      "57"
    ],
    "explorerMaps": [
      "OL46N",
      "365N"
    ],
    "id": "9RmRaDr8",
    "name": "Stob Breac"
  },
  {
    "number": 121,
    "regionNumber": "28B",
    "regionName": "The River Tweed to the English Border",
    "height": 688.0,
    "latitude": 55.515916,
    "longitude": -3.492146,
    "landrangerMaps": [
      "72"
    ],
    "explorerMaps": [
      "336"
    ],
    "id": "3ArXExm1",
    "name": "Gathersnow Hill"
  },
  {
    "number": 122,
    "regionNumber": "1D",
    "regionName": "Inveraray to Crianlarich",
    "height": 684.0,
    "latitude": 56.316818,
    "longitude": -4.779041,
    "landrangerMaps": [
      "50",
      "56"
    ],
    "explorerMaps": [
      "OL39N",
      "364N"
    ],
    "id": "RKjA7orx",
    "name": "Beinn Damhain"
  },
  {
    "number": 123,
    "regionNumber": "1E",
    "regionName": "Loch Long to Loch Lomond",
    "height": 684.0,
    "latitude": 56.12978,
    "longitude": -4.776779,
    "landrangerMaps": [
      "56"
    ],
    "explorerMaps": [
      "OL39S",
      "364S"
    ],
    "id": "07Yy9ZY5",
    "name": "Cruach an t-Sidhein"
  },
  {
    "number": 124,
    "regionNumber": "9C",
    "regionName": "Loch Lochy to Loch Laggan",
    "height": 684.0,
    "latitude": 56.950304,
    "longitude": -4.821777,
    "landrangerMaps": [
      "34",
      "41"
    ],
    "explorerMaps": [
      "400"
    ],
    "id": "kXr1NLmL",
    "name": "Leana Mhor"
  },
  {
    "number": 125,
    "regionNumber": "14A",
    "regionName": "Loch Maree to Loch Broom",
    "height": 682.0,
    "latitude": 57.7826,
    "longitude": -5.422808,
    "landrangerMaps": [
      "19"
    ],
    "explorerMaps": [
      "435N"
    ],
    "id": "GojNagm2",
    "name": "Beinn a' Chaisgein Beag"
  },
  {
    "number": 126,
    "regionNumber": "10D",
    "regionName": "Mallaig to Fort William",
    "height": 681.0,
    "latitude": 56.905198,
    "longitude": -5.269101,
    "landrangerMaps": [
      "41"
    ],
    "explorerMaps": [
      "399"
    ],
    "id": "04m8ggrL",
    "name": "Meall Onfhaidh"
  },
  {
    "number": 127,
    "regionNumber": "12A",
    "regionName": "Kyle of Lochalsh to Garve",
    "height": 681.0,
    "latitude": 57.529006,
    "longitude": -4.911913,
    "landrangerMaps": [
      "25"
    ],
    "explorerMaps": [
      "430"
    ],
    "id": "azY9X4jn",
    "name": "Meall na Faochaig"
  },
  {
    "number": 128,
    "regionNumber": "1E",
    "regionName": "Loch Long to Loch Lomond",
    "height": 680.7,
    "latitude": 56.163652,
    "longitude": -4.704575,
    "landrangerMaps": [
      "56"
    ],
    "explorerMaps": [
      "OL39S",
      "364S"
    ],
    "id": "qajgaxrk",
    "name": "Beinn Bhreac"
  },
  {
    "number": 129,
    "regionNumber": "11B",
    "regionName": "Glen Affric to Glen Moriston",
    "height": 679.0,
    "latitude": 57.259986,
    "longitude": -4.71948,
    "landrangerMaps": [
      "26"
    ],
    "explorerMaps": [
      "415"
    ],
    "id": "A3j61lmO",
    "name": "Meall a' Chrathaich"
  },
  {
    "number": 130,
    "regionNumber": "12B",
    "regionName": "Killilan to Inverness",
    "height": 679.0,
    "latitude": 57.320874,
    "longitude": -5.212441,
    "landrangerMaps": [
      "25"
    ],
    "explorerMaps": [
      "414N",
      "429"
    ],
    "id": "3Pr7Xpmk",
    "name": "Carn na Breabaig"
  },
  {
    "number": 131,
    "regionNumber": "24B",
    "regionName": "Harris and Nearby Islands",
    "height": 679.0,
    "latitude": 57.994886,
    "longitude": -6.985049,
    "landrangerMaps": [
      "13",
      "14"
    ],
    "explorerMaps": [
      "456"
    ],
    "id": "1grn9EYK",
    "name": "Tiorga Mor [Tirga Mor]"
  },
  {
    "number": 132,
    "regionNumber": "7B",
    "regionName": "Braemar to Montrose",
    "height": 678.0,
    "latitude": 56.854383,
    "longitude": -2.784013,
    "landrangerMaps": [
      "44"
    ],
    "explorerMaps": [
      "389"
    ],
    "id": "RVYpXwY6",
    "name": "Hill of Wirren"
  },
  {
    "number": 133,
    "regionNumber": "11B",
    "regionName": "Glen Affric to Glen Moriston",
    "height": 678.0,
    "latitude": 57.22673,
    "longitude": -4.800163,
    "landrangerMaps": [
      "34"
    ],
    "explorerMaps": [
      "415"
    ],
    "id": "8AjB71Y5",
    "name": "Carn Mhic an Toisich"
  },
  {
    "number": 134,
    "regionNumber": "13B",
    "regionName": "Applecross to Achnasheen",
    "height": 678.0,
    "latitude": 57.524874,
    "longitude": -5.266332,
    "landrangerMaps": [
      "25"
    ],
    "explorerMaps": [
      "429"
    ],
    "id": "PEmdZaYW",
    "name": "Carn Breac"
  },
  {
    "number": 135,
    "regionNumber": "28B",
    "regionName": "The River Tweed to the English Border",
    "height": 678.0,
    "latitude": 55.349063,
    "longitude": -3.319934,
    "landrangerMaps": [
      "79"
    ],
    "explorerMaps": [
      "330"
    ],
    "id": "9KYManY7",
    "name": "Capel Fell"
  },
  {
    "number": 136,
    "regionNumber": "28B",
    "regionName": "The River Tweed to the English Border",
    "height": 677.3,
    "latitude": 55.412224,
    "longitude": -3.268959,
    "landrangerMaps": [
      "79"
    ],
    "explorerMaps": [
      "330"
    ],
    "id": "3Xra3qjD",
    "name": "Andrewhinney Hill"
  },
  {
    "number": 137,
    "regionNumber": "12B",
    "regionName": "Killilan to Inverness",
    "height": 677.2,
    "latitude": 57.379252,
    "longitude": -4.781762,
    "landrangerMaps": [
      "26"
    ],
    "explorerMaps": [
      "431"
    ],
    "id": "gejbPgrK",
    "name": "Carn Gorm"
  },
  {
    "number": 138,
    "regionNumber": "3B",
    "regionName": "Loch Linnhe to Loch Etive",
    "height": 676.0,
    "latitude": 56.656971,
    "longitude": -5.091433,
    "landrangerMaps": [
      "41"
    ],
    "explorerMaps": [
      "384"
    ],
    "id": "9xrkvaY2",
    "name": "Meall Mor"
  },
  {
    "number": 139,
    "regionNumber": "3C",
    "regionName": "Glen Etive to Glen Lochy",
    "height": 676.0,
    "latitude": 56.518386,
    "longitude": -4.908354,
    "landrangerMaps": [
      "50"
    ],
    "explorerMaps": [
      "377E"
    ],
    "id": "MRmKa0Ye",
    "name": "Beinn Suidhe"
  },
  {
    "number": 140,
    "regionNumber": "9C",
    "regionName": "Loch Lochy to Loch Laggan",
    "height": 676.0,
    "latitude": 56.95178,
    "longitude": -4.769041,
    "landrangerMaps": [
      "34",
      "41"
    ],
    "explorerMaps": [
      "400"
    ],
    "id": "K2r5XRYR",
    "name": "Leana Mhor"
  },
  {
    "number": 141,
    "regionNumber": "1A",
    "regionName": "Loch Tay to Perth",
    "height": 673.7,
    "latitude": 56.410297,
    "longitude": -4.185395,
    "landrangerMaps": [
      "51"
    ],
    "explorerMaps": [
      "OL47W",
      "368W"
    ],
    "id": "QgmE78Yw",
    "name": "Creag Each"
  },
  {
    "number": 142,
    "regionNumber": "12A",
    "regionName": "Kyle of Lochalsh to Garve",
    "height": 673.3,
    "latitude": 57.518527,
    "longitude": -4.799112,
    "landrangerMaps": [
      "26"
    ],
    "explorerMaps": [
      "431"
    ],
    "id": "LvmLabjx",
    "name": "Carn na Coinnich"
  },
  {
    "number": 143,
    "regionNumber": "7A",
    "regionName": "Braemar to Montrose",
    "height": 671.0,
    "latitude": 56.7363,
    "longitude": -3.114978,
    "landrangerMaps": [
      "44"
    ],
    "explorerMaps": [
      "OL53S",
      "388S"
    ],
    "id": "83mW5WYx",
    "name": "Cat Law"
  },
  {
    "number": 144,
    "regionNumber": "13A",
    "regionName": "Loch Torridon to Loch Maree",
    "height": 671.0,
    "latitude": 57.591147,
    "longitude": -5.622183,
    "landrangerMaps": [
      "19",
      "24"
    ],
    "explorerMaps": [
      "433"
    ],
    "id": "1dYlqprN",
    "name": "An Ruadh-mheallan"
  },
  {
    "number": 145,
    "regionNumber": "17A",
    "regionName": "North Skye and Raasay",
    "height": 669.0,
    "latitude": 57.515722,
    "longitude": -6.209519,
    "landrangerMaps": [
      "23"
    ],
    "explorerMaps": [
      "408",
      "409"
    ],
    "id": "3Rr08Nrk",
    "name": "Hartaval"
  },
  {
    "number": 146,
    "regionNumber": "8B",
    "regionName": "Cairngorms",
    "height": 668.0,
    "latitude": 57.003309,
    "longitude": -3.49688,
    "landrangerMaps": [
      "43"
    ],
    "explorerMaps": [
      "OL52N",
      "OL58S",
      "387N",
      "404S"
    ],
    "id": "Dlrw9AjQ",
    "name": "Creag Bhalg"
  },
  {
    "number": 147,
    "regionNumber": "14B",
    "regionName": "The Fannaichs",
    "height": 668.0,
    "latitude": 57.691513,
    "longitude": -5.214204,
    "landrangerMaps": [
      "19"
    ],
    "explorerMaps": [
      "435S"
    ],
    "id": "2Vjx9LYQ",
    "name": "Beinn Bheag"
  },
  {
    "number": 148,
    "regionNumber": "4B",
    "regionName": "Loch Treig to Loch Ericht",
    "height": 667.1,
    "latitude": 56.938127,
    "longitude": -4.479307,
    "landrangerMaps": [
      "34",
      "42"
    ],
    "explorerMaps": [
      "OL50",
      "393"
    ],
    "id": "ZGjOa4ry",
    "name": "Binnein Shios"
  },
  {
    "number": 149,
    "regionNumber": "10B",
    "regionName": "Knoydart to Glen Kingie",
    "height": 667.0,
    "latitude": 57.090151,
    "longitude": -5.461866,
    "landrangerMaps": [
      "33"
    ],
    "explorerMaps": [
      "413S"
    ],
    "id": "1Vj2dyr2",
    "name": "Meall nan Eun"
  },
  {
    "number": 150,
    "regionNumber": "15A",
    "regionName": "Loch Broom to Strath Oykel",
    "height": 667.0,
    "latitude": 57.852083,
    "longitude": -4.991524,
    "landrangerMaps": [
      "20"
    ],
    "explorerMaps": [
      "436N"
    ],
    "id": "1Xr3Xnm8",
    "name": "Beinn Bhreac [Meall Dubh]"
  },
  {
    "number": 151,
    "regionNumber": "18A",
    "regionName": "Moidart and Ardnamurchan",
    "height": 666.0,
    "latitude": 56.812363,
    "longitude": -5.636849,
    "landrangerMaps": [
      "40"
    ],
    "explorerMaps": [
      "390E"
    ],
    "id": "Z1jPaRY2",
    "name": "Beinn Gaire"
  },
  {
    "number": 152,
    "regionNumber": "26B",
    "regionName": "Central Scotland from Dumbarton to Montrose",
    "height": 665.6,
    "latitude": 56.28104,
    "longitude": -4.115686,
    "landrangerMaps": [
      "57"
    ],
    "explorerMaps": [
      "OL47W",
      "368W"
    ],
    "id": "NVmVaZrw",
    "name": "Uamh Bheag"
  },
  {
    "number": 153,
    "regionNumber": "3C",
    "regionName": "Glen Etive to Glen Lochy",
    "height": 665.0,
    "latitude": 56.497742,
    "longitude": -4.843035,
    "landrangerMaps": [
      "50"
    ],
    "explorerMaps": [
      "377E"
    ],
    "id": "aBjZWlYM",
    "name": "Meall Tairbh"
  },
  {
    "number": 154,
    "regionNumber": "12A",
    "regionName": "Kyle of Lochalsh to Garve",
    "height": 665.0,
    "latitude": 57.486597,
    "longitude": -4.906332,
    "landrangerMaps": [
      "25"
    ],
    "explorerMaps": [
      "430"
    ],
    "id": "b1mD7Xr8",
    "name": "Beinn Mheadhoin"
  },
  {
    "number": 155,
    "regionNumber": "19C",
    "regionName": "Loch Fyne to Bute and the Firth of Clyde",
    "height": 664.0,
    "latitude": 56.053191,
    "longitude": -4.963195,
    "landrangerMaps": [
      "56"
    ],
    "explorerMaps": [
      "OL37S",
      "363S"
    ],
    "id": "AdrJavYW",
    "name": "Beinn Ruadh"
  },
  {
    "number": 156,
    "regionNumber": "3B",
    "regionName": "Loch Linnhe to Loch Etive",
    "height": 663.0,
    "latitude": 56.648852,
    "longitude": -5.126031,
    "landrangerMaps": [
      "41"
    ],
    "explorerMaps": [
      "384"
    ],
    "id": "D6re3djy",
    "name": "Sgorr a' Choise"
  },
  {
    "number": 157,
    "regionNumber": "10D",
    "regionName": "Mallaig to Fort William",
    "height": 663.0,
    "latitude": 56.890778,
    "longitude": -5.293741,
    "landrangerMaps": [
      "40"
    ],
    "explorerMaps": [
      "398E",
      "399"
    ],
    "id": "MEmqAvmJ",
    "name": "Aodann Chleireig"
  },
  {
    "number": 158,
    "regionNumber": "18A",
    "regionName": "Moidart and Ardnamurchan",
    "height": 663.0,
    "latitude": 56.835606,
    "longitude": -5.590275,
    "landrangerMaps": [
      "40"
    ],
    "explorerMaps": [
      "391"
    ],
    "id": "nNrG3Wr4",
    "name": "Croit Bheinn"
  },
  {
    "number": 159,
    "regionNumber": "24B",
    "regionName": "Harris and Nearby Islands",
    "height": 662.0,
    "latitude": 57.98306,
    "longitude": -6.935215,
    "landrangerMaps": [
      "13",
      "14"
    ],
    "explorerMaps": [
      "456"
    ],
    "id": "l8rv4qjG",
    "name": "Oireabhal [Oreval]"
  },
  {
    "number": 160,
    "regionNumber": "28A",
    "regionName": "Firth of Forth to the River Tweed",
    "height": 659.2,
    "latitude": 55.677254,
    "longitude": -3.001339,
    "landrangerMaps": [
      "73"
    ],
    "explorerMaps": [
      "337"
    ],
    "id": "RVY4ROmJ",
    "name": "Windlestraw Law"
  },
  {
    "number": 161,
    "regionNumber": "9A",
    "regionName": "Inverness to Strathspey",
    "height": 659.0,
    "latitude": 57.339445,
    "longitude": -3.843279,
    "landrangerMaps": [
      "35",
      "36"
    ],
    "explorerMaps": [
      "OL60",
      "418"
    ],
    "id": "EVjzE7mb",
    "name": "Carn Glas-choire"
  },
  {
    "number": 162,
    "regionNumber": "1C",
    "regionName": "Loch Lomond to Strathyre",
    "height": 658.0,
    "latitude": 56.335473,
    "longitude": -4.411255,
    "landrangerMaps": [
      "57"
    ],
    "explorerMaps": [
      "OL46N",
      "365N"
    ],
    "id": "JEjQ0Bma",
    "name": "Creag Mhor"
  },
  {
    "number": 163,
    "regionNumber": "4B",
    "regionName": "Loch Treig to Loch Ericht",
    "height": 658.0,
    "latitude": 56.957123,
    "longitude": -4.309079,
    "landrangerMaps": [
      "42"
    ],
    "explorerMaps": [
      "OL50",
      "393"
    ],
    "id": "p5mo4zj4",
    "name": "Meall nan Eagan"
  },
  {
    "number": 164,
    "regionNumber": "5B",
    "regionName": "Loch Ericht to Glen Tromie & Glen Garry",
    "height": 658.0,
    "latitude": 56.966386,
    "longitude": -4.163957,
    "landrangerMaps": [
      "42"
    ],
    "explorerMaps": [
      "OL51W",
      "OL56",
      "394W",
      "402"
    ],
    "id": "9RmRwDj8",
    "name": "Creag Ruadh"
  },
  {
    "number": 165,
    "regionNumber": "9C",
    "regionName": "Loch Lochy to Loch Laggan",
    "height": 658.0,
    "latitude": 56.902973,
    "longitude": -4.7558,
    "landrangerMaps": [
      "34",
      "41"
    ],
    "explorerMaps": [
      "392",
      "400"
    ],
    "id": "3ArXVxj1",
    "name": "Creag Dhubh"
  },
  {
    "number": 166,
    "regionNumber": "1E",
    "regionName": "Loch Long to Loch Lomond",
    "height": 657.0,
    "latitude": 56.129482,
    "longitude": -4.70232,
    "landrangerMaps": [
      "56"
    ],
    "explorerMaps": [
      "OL39S",
      "364S"
    ],
    "id": "RKjAlomx",
    "name": "Mid Hill [Beinn Dubh]"
  },
  {
    "number": 167,
    "regionNumber": "27B",
    "regionName": "Carrick and Galloway",
    "height": 657.0,
    "latitude": 55.05024,
    "longitude": -4.38383,
    "landrangerMaps": [
      "77"
    ],
    "explorerMaps": [
      "319"
    ],
    "id": "07Yy5ZY5",
    "name": "Millfore"
  },
  {
    "number": 168,
    "regionNumber": "1D",
    "regionName": "Inveraray to Crianlarich",
    "height": 656.0,
    "latitude": 56.430037,
    "longitude": -4.76167,
    "landrangerMaps": [
      "50"
    ],
    "explorerMaps": [
      "OL39N",
      "364N",
      "377E"
    ],
    "id": "kXr11LrL",
    "name": "Meall Odhar"
  },
  {
    "number": 169,
    "regionNumber": "10C",
    "regionName": "Loch Arkaig to Glen Moriston",
    "height": 656.0,
    "latitude": 57.006388,
    "longitude": -5.167566,
    "landrangerMaps": [
      "33"
    ],
    "explorerMaps": [
      "399"
    ],
    "id": "GojNLgr2",
    "name": "Meall Blair"
  },
  {
    "number": 170,
    "regionNumber": "1D",
    "regionName": "Inveraray to Crianlarich",
    "height": 652.2,
    "latitude": 56.398537,
    "longitude": -4.683429,
    "landrangerMaps": [
      "50"
    ],
    "explorerMaps": [
      "OL39N",
      "364N",
      "377E"
    ],
    "id": "04m8zgYL",
    "name": "Fiarach"
  },
  {
    "number": 171,
    "regionNumber": "18C",
    "regionName": "Morvern and Kingairloch",
    "height": 652.0,
    "latitude": 56.630469,
    "longitude": -5.500508,
    "landrangerMaps": [
      "49"
    ],
    "explorerMaps": [
      "376",
      "383E"
    ],
    "id": "azY944jn",
    "name": "Beinn na Cille"
  },
  {
    "number": 172,
    "regionNumber": "3C",
    "regionName": "Glen Etive to Glen Lochy",
    "height": 651.4,
    "latitude": 56.442585,
    "longitude": -4.923232,
    "landrangerMaps": [
      "50"
    ],
    "explorerMaps": [
      "OL39N",
      "364N",
      "377E"
    ],
    "id": "qajgVxmk",
    "name": "Beinn Donachain"
  },
  {
    "number": 173,
    "regionNumber": "11B",
    "regionName": "Glen Affric to Glen Moriston",
    "height": 651.0,
    "latitude": 57.272212,
    "longitude": -4.593933,
    "landrangerMaps": [
      "26"
    ],
    "explorerMaps": [
      "416S"
    ],
    "id": "A3j64lrO",
    "name": "Glas-bheinn Mhor"
  },
  {
    "number": 174,
    "regionNumber": "28A",
    "regionName": "Firth of Forth to the River Tweed",
    "height": 651.0,
    "latitude": 55.723509,
    "longitude": -3.09193,
    "landrangerMaps": [
      "73"
    ],
    "explorerMaps": [
      "337"
    ],
    "id": "3Pr74pmk",
    "name": "Blackhope Scar"
  },
  {
    "number": 175,
    "regionNumber": "18B",
    "regionName": "Sunart and Ardgour",
    "height": 650.0,
    "latitude": 56.712987,
    "longitude": -5.386012,
    "landrangerMaps": [
      "40"
    ],
    "explorerMaps": [
      "391"
    ],
    "id": "1grn4EjK",
    "name": "Sgorr Mhic Eacharna"
  },
  {
    "number": 176,
    "regionNumber": "15B",
    "regionName": "Loch Vaich to Moray Firth",
    "height": 647.0,
    "latitude": 57.851857,
    "longitude": -4.497372,
    "landrangerMaps": [
      "20"
    ],
    "explorerMaps": [
      "437N"
    ],
    "id": "RVYpdwY6",
    "name": "Carn Salachaidh"
  },
  {
    "number": 177,
    "regionNumber": "4A",
    "regionName": "Fort William to Loch Treig & Loch Leven",
    "height": 646.0,
    "latitude": 56.743792,
    "longitude": -4.806432,
    "landrangerMaps": [
      "41"
    ],
    "explorerMaps": [
      "385W",
      "392"
    ],
    "id": "8AjB01r5",
    "name": "Beinn na Cloiche"
  },
  {
    "number": 178,
    "regionNumber": "10A",
    "regionName": "Glen Shiel to Loch Hourn and Loch Quoich",
    "height": 645.8,
    "latitude": 57.177536,
    "longitude": -5.391772,
    "landrangerMaps": [
      "33"
    ],
    "explorerMaps": [
      "413N",
      "414N",
      "414S"
    ],
    "id": "PEmd2aYW",
    "name": "Biod an Fhithich"
  },
  {
    "number": 179,
    "regionNumber": "27B",
    "regionName": "Carrick and Galloway",
    "height": 645.0,
    "latitude": 55.12038,
    "longitude": -4.417604,
    "landrangerMaps": [
      "77"
    ],
    "explorerMaps": [
      "318"
    ],
    "id": "9KYMEnY7",
    "name": "Craignaw"
  },
  {
    "number": 180,
    "regionNumber": "1B",
    "regionName": "Strathyre to Strathallan",
    "height": 644.2,
    "latitude": 56.323613,
    "longitude": -4.291787,
    "landrangerMaps": [
      "57"
    ],
    "explorerMaps": [
      "OL46N",
      "365N"
    ],
    "id": "3XrawqjD",
    "name": "Sgiath a' Chaise"
  },
  {
    "number": 181,
    "regionNumber": "19C",
    "regionName": "Loch Fyne to Bute and the Firth of Clyde",
    "height": 643.0,
    "latitude": 56.07641,
    "longitude": -5.073782,
    "landrangerMaps": [
      "56"
    ],
    "explorerMaps": [
      "OL37N",
      "362N",
      "363N"
    ],
    "id": "gejbxgrK",
    "name": "Creag Tharsuinn"
  },
  {
    "number": 182,
    "regionNumber": "10A",
    "regionName": "Glen Shiel to Loch Hourn and Loch Quoich",
    "height": 642.3,
    "latitude": 57.140312,
    "longitude": -5.495656,
    "landrangerMaps": [
      "33"
    ],
    "explorerMaps": [
      "413S"
    ],
    "id": "9xrk4am2",
    "name": "Beinn Clachach"
  },
  {
    "number": 183,
    "regionNumber": "6B",
    "regionName": "Pitlochry to Braemar & Blairgowrie",
    "height": 641.0,
    "latitude": 56.731393,
    "longitude": -3.604384,
    "landrangerMaps": [
      "43"
    ],
    "explorerMaps": [
      "OL52S",
      "387S"
    ],
    "id": "MRmKD0je",
    "name": "Blath Bhalg"
  },
  {
    "number": 184,
    "regionNumber": "1B",
    "regionName": "Strathyre to Strathallan",
    "height": 640.3,
    "latitude": 56.365368,
    "longitude": -4.079704,
    "landrangerMaps": [
      "51",
      "52",
      "57"
    ],
    "explorerMaps": [
      "OL47W",
      "368W"
    ],
    "id": "K2r5oRjR",
    "name": "Mor Bheinn"
  },
  {
    "number": 185,
    "regionNumber": "1A",
    "regionName": "Loch Tay to Perth",
    "height": 637.4,
    "latitude": 56.46677,
    "longitude": -4.221506,
    "landrangerMaps": [
      "51"
    ],
    "explorerMaps": [
      "OL48E",
      "378E"
    ],
    "id": "QgmEO8Yw",
    "name": "Creag Gharbh"
  },
  {
    "number": 186,
    "regionNumber": "28B",
    "regionName": "The River Tweed to the English Border",
    "height": 637.0,
    "latitude": 55.337584,
    "longitude": -3.336754,
    "landrangerMaps": [
      "79"
    ],
    "explorerMaps": [
      "330"
    ],
    "id": "LvmL5bjx",
    "name": "Croft Head"
  },
  {
    "number": 187,
    "regionNumber": "1D",
    "regionName": "Inveraray to Crianlarich",
    "height": 636.8,
    "latitude": 56.374992,
    "longitude": -4.912121,
    "landrangerMaps": [
      "50"
    ],
    "explorerMaps": [
      "OL39N",
      "364N"
    ],
    "id": "83mWPWjx",
    "name": "Beinn Bhalgairean"
  },
  {
    "number": 188,
    "regionNumber": "3C",
    "regionName": "Glen Etive to Glen Lochy",
    "height": 636.0,
    "latitude": 56.419546,
    "longitude": -4.864733,
    "landrangerMaps": [
      "50"
    ],
    "explorerMaps": [
      "OL39N",
      "364N",
      "377E"
    ],
    "id": "1dYl4pYN",
    "name": "Beinn na Sroine"
  },
  {
    "number": 189,
    "regionNumber": "18B",
    "regionName": "Sunart and Ardgour",
    "height": 636.0,
    "latitude": 56.827667,
    "longitude": -5.378573,
    "landrangerMaps": [
      "40"
    ],
    "explorerMaps": [
      "391"
    ],
    "id": "3Rr04Nrk",
    "name": "Glas Bheinn"
  },
  {
    "number": 190,
    "regionNumber": "14A",
    "regionName": "Loch Maree to Loch Broom",
    "height": 635.0,
    "latitude": 57.895968,
    "longitude": -5.282466,
    "landrangerMaps": [
      "19"
    ],
    "explorerMaps": [
      "435N"
    ],
    "id": "DlrwzAYQ",
    "name": "Beinn Ghobhlach"
  },
  {
    "number": 191,
    "regionNumber": "10D",
    "regionName": "Mallaig to Fort William",
    "height": 633.0,
    "latitude": 56.894814,
    "longitude": -5.537558,
    "landrangerMaps": [
      "40"
    ],
    "explorerMaps": [
      "398E"
    ],
    "id": "2Vjx4LjQ",
    "name": "Glas-charn"
  },
  {
    "number": 192,
    "regionNumber": "1C",
    "regionName": "Loch Lomond to Strathyre",
    "height": 632.0,
    "latitude": 56.210735,
    "longitude": -4.637088,
    "landrangerMaps": [
      "56"
    ],
    "explorerMaps": [
      "OL39S",
      "364S"
    ],
    "id": "ZGjOW4jy",
    "name": "Cruinn a' Bheinn"
  },
  {
    "number": 193,
    "regionNumber": "1E",
    "regionName": "Loch Long to Loch Lomond",
    "height": 632.0,
    "latitude": 56.167845,
    "longitude": -4.749948,
    "landrangerMaps": [
      "56"
    ],
    "explorerMaps": [
      "OL39S",
      "364S"
    ],
    "id": "1Vj24yr2",
    "name": "Tullich Hill"
  },
  {
    "number": 194,
    "regionNumber": "15A",
    "regionName": "Loch Broom to Strath Oykel",
    "height": 632.0,
    "latitude": 57.804028,
    "longitude": -4.761431,
    "landrangerMaps": [
      "20"
    ],
    "explorerMaps": [
      "437N"
    ],
    "id": "1Xr38nm8",
    "name": "Meall a' Chaorainn"
  },
  {
    "number": 195,
    "regionNumber": "16D",
    "regionName": "Altnaharra to Dornoch",
    "height": 628.0,
    "latitude": 58.116766,
    "longitude": -3.82561,
    "landrangerMaps": [
      "17"
    ],
    "explorerMaps": [
      "444W"
    ],
    "id": "Z1jPlRj2",
    "name": "Beinn Dhorain"
  },
  {
    "number": 196,
    "regionNumber": "13B",
    "regionName": "Applecross to Achnasheen",
    "height": 626.8,
    "latitude": 57.537821,
    "longitude": -5.192478,
    "landrangerMaps": [
      "25"
    ],
    "explorerMaps": [
      "429"
    ],
    "id": "K2r5oKjR",
    "name": "Beinn na Feusaige"
  },
  {
    "number": 197,
    "regionNumber": "13B",
    "regionName": "Applecross to Achnasheen",
    "height": 626.0,
    "latitude": 57.474397,
    "longitude": -5.79749,
    "landrangerMaps": [
      "24"
    ],
    "explorerMaps": [
      "428N"
    ],
    "id": "QgmEORYw",
    "name": "Beinn a' Chlachain [Meall an Doireachain]"
  },
  {
    "number": 198,
    "regionNumber": "16C",
    "regionName": "Tongue to Wick and Helmsdale",
    "height": 626.0,
    "latitude": 58.220372,
    "longitude": -3.591511,
    "landrangerMaps": [
      "17"
    ],
    "explorerMaps": [
      "444E"
    ],
    "id": "LvmL56jx",
    "name": "Scaraben"
  },
  {
    "number": 199,
    "regionNumber": "1A",
    "regionName": "Loch Tay to Perth",
    "height": 623.7,
    "latitude": 56.484891,
    "longitude": -3.741256,
    "landrangerMaps": [
      "52"
    ],
    "explorerMaps": [
      "379W"
    ],
    "id": "83mWPLjx",
    "name": "Meall nan Caorach"
  },
  {
    "number": 200,
    "regionNumber": "9C",
    "regionName": "Loch Lochy to Loch Laggan",
    "height": 622.0,
    "latitude": 56.991135,
    "longitude": -4.374914,
    "landrangerMaps": [
      "35"
    ],
    "explorerMaps": [
      "OL55",
      "401"
    ],
    "id": "1dYlVDmN",
    "name": "Creag Ruadh"
  },
  {
    "number": 201,
    "regionNumber": "4A",
    "regionName": "Fort William to Loch Treig & Loch Leven",
    "height": 621.0,
    "latitude": 56.781438,
    "longitude": -4.784209,
    "landrangerMaps": [
      "41"
    ],
    "explorerMaps": [
      "385W"
    ],
    "id": "3Rr0nOjk",
    "name": "Creag Ghuanach"
  },
  {
    "number": 202,
    "regionNumber": "4A",
    "regionName": "Fort William to Loch Treig & Loch Leven",
    "height": 621.0,
    "latitude": 56.711359,
    "longitude": -5.126527,
    "landrangerMaps": [
      "41"
    ],
    "explorerMaps": [
      "384",
      "392"
    ],
    "id": "DlrwxNmQ",
    "name": "Tom Meadhoin"
  },
  {
    "number": 203,
    "regionNumber": "24C",
    "regionName": "North Uist, South Uist and Nearby Islands",
    "height": 620.0,
    "latitude": 57.258699,
    "longitude": -7.294969,
    "landrangerMaps": [
      "22"
    ],
    "explorerMaps": [
      "453S"
    ],
    "id": "2VjxOqmQ",
    "name": "Beinn Mhor"
  },
  {
    "number": 204,
    "regionNumber": "16F",
    "regionName": "Lochinver to Ullapool",
    "height": 619.0,
    "latitude": 58.006568,
    "longitude": -5.208998,
    "landrangerMaps": [
      "15"
    ],
    "explorerMaps": [
      "439E"
    ],
    "id": "ZGjOJLmy",
    "name": "Beinn an Eoin"
  },
  {
    "number": 205,
    "regionNumber": "21B",
    "regionName": "Fraserburgh to the Dee Valley",
    "height": 619.0,
    "latitude": 57.1688,
    "longitude": -2.844236,
    "landrangerMaps": [
      "37"
    ],
    "explorerMaps": [
      "OL59E",
      "405E"
    ],
    "id": "1Vj2n3j2",
    "name": "Pressendye"
  },
  {
    "number": 206,
    "regionNumber": "28B",
    "regionName": "The River Tweed to the English Border",
    "height": 619.0,
    "latitude": 55.297244,
    "longitude": -2.857426,
    "landrangerMaps": [
      "79"
    ],
    "explorerMaps": [
      "331"
    ],
    "id": "1Xr3dRm8",
    "name": "Cauldcleuch Head"
  },
  {
    "number": 207,
    "regionNumber": "17E",
    "regionName": "Mull and Nearby Islands",
    "height": 618.0,
    "latitude": 56.405123,
    "longitude": -5.90011,
    "landrangerMaps": [
      "48"
    ],
    "explorerMaps": [
      "375E",
      "375W"
    ],
    "id": "Z1jPM6Y2",
    "name": "Cruach Choireadail"
  },
  {
    "number": 208,
    "regionNumber": "19C",
    "regionName": "Loch Fyne to Bute and the Firth of Clyde",
    "height": 618.0,
    "latitude": 56.094741,
    "longitude": -5.014326,
    "landrangerMaps": [
      "56"
    ],
    "explorerMaps": [
      "OL37N",
      "363N"
    ],
    "id": "NVmVR2mw",
    "name": "Beinn Bheag"
  },
  {
    "number": 209,
    "regionNumber": "1A",
    "regionName": "Loch Tay to Perth",
    "height": 617.8,
    "latitude": 56.479066,
    "longitude": -3.751689,
    "landrangerMaps": [
      "52"
    ],
    "explorerMaps": [
      "379W"
    ],
    "id": "aBjZRvjM",
    "name": "Meall Reamhar"
  },
  {
    "number": 210,
    "regionNumber": "9B",
    "regionName": "Glen Albyn and the Monadh Liath",
    "height": 617.0,
    "latitude": 57.36182,
    "longitude": -4.0898,
    "landrangerMaps": [
      "27"
    ],
    "explorerMaps": [
      "OL60",
      "418"
    ],
    "id": "b1mDlam8",
    "name": "Carn na h-Easgainn"
  },
  {
    "number": 211,
    "regionNumber": "4A",
    "regionName": "Fort William to Loch Treig & Loch Leven",
    "height": 616.0,
    "latitude": 56.739282,
    "longitude": -5.168774,
    "landrangerMaps": [
      "41"
    ],
    "explorerMaps": [
      "384",
      "392"
    ],
    "id": "AdrJ3VmW",
    "name": "Beinn na Gucaig"
  },
  {
    "number": 212,
    "regionNumber": "9A",
    "regionName": "Inverness to Strathspey",
    "height": 615.0,
    "latitude": 57.426367,
    "longitude": -3.961524,
    "landrangerMaps": [
      "27"
    ],
    "explorerMaps": [
      "OL60",
      "418"
    ],
    "id": "D6re0XYy",
    "name": "Carn nan Tri-tighearnan"
  },
  {
    "number": 213,
    "regionNumber": "11A",
    "regionName": "Loch Duich to Cannich",
    "height": 613.0,
    "latitude": 57.285793,
    "longitude": -4.957197,
    "landrangerMaps": [
      "25"
    ],
    "explorerMaps": [
      "415"
    ],
    "id": "MEmqEomJ",
    "name": "Beinn a' Mheadhoin"
  },
  {
    "number": 214,
    "regionNumber": "16E",
    "regionName": "Scourie to Lairg",
    "height": 613.0,
    "latitude": 58.237685,
    "longitude": -4.791869,
    "landrangerMaps": [
      "16"
    ],
    "explorerMaps": [
      "440N",
      "442E",
      "445"
    ],
    "id": "nNrGx7m4",
    "name": "Meall an Fheur Loch"
  },
  {
    "number": 215,
    "regionNumber": "5A",
    "regionName": "Loch Ericht to Glen Tromie & Glen Garry",
    "height": 612.0,
    "latitude": 56.756748,
    "longitude": -4.234727,
    "landrangerMaps": [
      "42"
    ],
    "explorerMaps": [
      "OL49W",
      "386W"
    ],
    "id": "l8rvw4mG",
    "name": "Creag a' Mhadaidh"
  },
  {
    "number": 216,
    "regionNumber": "16F",
    "regionName": "Lochinver to Ullapool",
    "height": 612.0,
    "latitude": 58.044105,
    "longitude": -5.208534,
    "landrangerMaps": [
      "15"
    ],
    "explorerMaps": [
      "439E"
    ],
    "id": "RVY4MMrJ",
    "name": "Stac Pollaidh"
  },
  {
    "number": 217,
    "regionNumber": "19C",
    "regionName": "Loch Fyne to Bute and the Firth of Clyde",
    "height": 612.0,
    "latitude": 55.971067,
    "longitude": -5.052881,
    "landrangerMaps": [
      "63"
    ],
    "explorerMaps": [
      "OL37S",
      "362N",
      "363S"
    ],
    "id": "EVjz36Yb",
    "name": "Cruach nan Capull"
  },
  {
    "number": 218,
    "regionNumber": "19C",
    "regionName": "Loch Fyne to Bute and the Firth of Clyde",
    "height": 611.2,
    "latitude": 56.207975,
    "longitude": -4.954987,
    "landrangerMaps": [
      "56"
    ],
    "explorerMaps": [
      "OL37N",
      "363N"
    ],
    "id": "JEjQnvYa",
    "name": "Cruach nam Mult"
  },
  {
    "number": 219,
    "regionNumber": "12A",
    "regionName": "Kyle of Lochalsh to Garve",
    "height": 611.0,
    "latitude": 57.409763,
    "longitude": -5.359872,
    "landrangerMaps": [
      "25"
    ],
    "explorerMaps": [
      "429"
    ],
    "id": "p5moJLr4",
    "name": "Creag Dhubh Mhor"
  }
]