[
  {
    "number": 1,
    "regionNumber": "14A",
    "regionName": "Loch Maree to Loch Broom",
    "height": 913.96,
    "latitude": 57.745922,
    "longitude": -5.259066,
    "landrangerMaps": [
      "19"
    ],
    "explorerMaps": [
      "435N",
      "435S"
    ],
    "id": "9KYM6wr7",
    "name": "Beinn a' Chlaidheimh"
  },
  {
    "number": 2,
    "regionNumber": "13A",
    "regionName": "Loch Torridon to Loch Maree",
    "height": 913.7,
    "latitude": 57.588177,
    "longitude": -5.522871,
    "landrangerMaps": [
      "19",
      "24"
    ],
    "explorerMaps": [
      "433"
    ],
    "id": "3Xra8bYD",
    "name": "Beinn Dearg"
  },
  {
    "number": 3,
    "regionNumber": "12A",
    "regionName": "Kyle of Lochalsh to Garve",
    "height": 913.43,
    "latitude": 57.482307,
    "longitude": -5.192321,
    "landrangerMaps": [
      "25"
    ],
    "explorerMaps": [
      "429"
    ],
    "id": "gejb34YK",
    "name": "Sgurr nan Ceannaichean"
  },
  {
    "number": 4,
    "regionNumber": "10B",
    "regionName": "Knoydart to Glen Kingie",
    "height": 913.32,
    "latitude": 57.057215,
    "longitude": -5.471305,
    "landrangerMaps": [
      "33"
    ],
    "explorerMaps": [
      "398E",
      "413S"
    ],
    "id": "9xrkZyY2",
    "name": "Sgurr a' Choire-bheithe"
  },
  {
    "number": 5,
    "regionNumber": "6A",
    "regionName": "Glen Tromie to Glen Tilt",
    "height": 912.44,
    "latitude": 56.916127,
    "longitude": -3.86034,
    "landrangerMaps": [
      "43"
    ],
    "explorerMaps": [
      "OL51E",
      "394E"
    ],
    "id": "MRmKxRje",
    "name": "Beinn Bhreac"
  },
  {
    "number": 6,
    "regionNumber": "6A",
    "regionName": "Glen Tromie to Glen Tilt",
    "height": 911.7,
    "latitude": 56.948652,
    "longitude": -3.93864,
    "landrangerMaps": [
      "43"
    ],
    "explorerMaps": [
      "OL51E",
      "394E"
    ],
    "id": "K2r5ezrR",
    "name": "Leathad an Taobhain"
  },
  {
    "number": 7,
    "regionNumber": "4B",
    "regionName": "Loch Treig to Loch Ericht",
    "height": 911.4,
    "latitude": 56.928372,
    "longitude": -4.304853,
    "landrangerMaps": [
      "42"
    ],
    "explorerMaps": [
      "OL50",
      "393"
    ],
    "id": "QgmEnbjw",
    "name": "The Fara"
  },
  {
    "number": 8,
    "regionNumber": "16B",
    "regionName": "Durness to Loch Shin",
    "height": 911.05,
    "latitude": 58.41206,
    "longitude": -4.885699,
    "landrangerMaps": [
      "9"
    ],
    "explorerMaps": [
      "445"
    ],
    "id": "LvmLx2mx",
    "name": "Foinaven [Foinne Bhein] - Ganu Mor"
  },
  {
    "number": 9,
    "regionNumber": "2B",
    "regionName": "Glen Lyon to Glen Dochart & Loch Tay",
    "height": 909.6,
    "latitude": 56.540091,
    "longitude": -4.373237,
    "landrangerMaps": [
      "51"
    ],
    "explorerMaps": [
      "OL48W",
      "378W"
    ],
    "id": "83mWXqjx",
    "name": "Beinn nan Oighreag"
  },
  {
    "number": 10,
    "regionNumber": "10D",
    "regionName": "Mallaig to Fort William",
    "height": 909.0,
    "latitude": 56.923006,
    "longitude": -5.375537,
    "landrangerMaps": [
      "40"
    ],
    "explorerMaps": [
      "398E"
    ],
    "id": "1dYlz6mN",
    "name": "Streap"
  },
  {
    "number": 11,
    "regionNumber": "2A",
    "regionName": "Loch Rannoch to Glen Lyon",
    "height": 908.2,
    "latitude": 56.570153,
    "longitude": -4.562,
    "landrangerMaps": [
      "51"
    ],
    "explorerMaps": [
      "OL48W",
      "378W"
    ],
    "id": "3Rr06Rjk",
    "name": "Meall Buidhe"
  },
  {
    "number": 12,
    "regionNumber": "3B",
    "regionName": "Loch Linnhe to Loch Etive",
    "height": 907.0,
    "latitude": 56.627844,
    "longitude": -5.041952,
    "landrangerMaps": [
      "41"
    ],
    "explorerMaps": [
      "384"
    ],
    "id": "DlrweajQ",
    "name": "Beinn Maol Chaluim"
  },
  {
    "number": 13,
    "regionNumber": "13B",
    "regionName": "Applecross to Achnasheen",
    "height": 907.0,
    "latitude": 57.485385,
    "longitude": -5.379188,
    "landrangerMaps": [
      "25"
    ],
    "explorerMaps": [
      "429"
    ],
    "id": "2Vjxz0rQ",
    "name": "Fuar Tholl"
  },
  {
    "number": 14,
    "regionNumber": "4A",
    "regionName": "Fort William to Loch Treig & Loch Leven",
    "height": 906.4,
    "latitude": 56.738929,
    "longitude": -4.730754,
    "landrangerMaps": [
      "41"
    ],
    "explorerMaps": [
      "385W"
    ],
    "id": "ZGjOzemy",
    "name": "Leum Uilleim"
  },
  {
    "number": 15,
    "regionNumber": "14A",
    "regionName": "Loch Maree to Loch Broom",
    "height": 906.28,
    "latitude": 57.765796,
    "longitude": -5.309938,
    "landrangerMaps": [
      "19"
    ],
    "explorerMaps": [
      "435N",
      "435S"
    ],
    "id": "1Vj2e9m2",
    "name": "Beinn Dearg Mor"
  },
  {
    "number": 16,
    "regionNumber": "10C",
    "regionName": "Loch Arkaig to Glen Moriston",
    "height": 904.0,
    "latitude": 57.032239,
    "longitude": -4.900715,
    "landrangerMaps": [
      "34"
    ],
    "explorerMaps": [
      "400"
    ],
    "id": "1Xr3RAY8",
    "name": "Ben Tee"
  },
  {
    "number": 17,
    "regionNumber": "6B",
    "regionName": "Pitlochry to Braemar & Blairgowrie",
    "height": 903.0,
    "latitude": 56.810737,
    "longitude": -3.644008,
    "landrangerMaps": [
      "43"
    ],
    "explorerMaps": [
      "OL51E",
      "394E"
    ],
    "id": "Z1jP7gm2",
    "name": "Ben Vuirich"
  },
  {
    "number": 18,
    "regionNumber": "13B",
    "regionName": "Applecross to Achnasheen",
    "height": 903.0,
    "latitude": 57.492846,
    "longitude": -5.518149,
    "landrangerMaps": [
      "24"
    ],
    "explorerMaps": [
      "428N"
    ],
    "id": "K2r5edrR",
    "name": "Beinn Damh"
  },
  {
    "number": 19,
    "regionNumber": "19C",
    "regionName": "Loch Fyne to Bute and the Firth of Clyde",
    "height": 901.7,
    "latitude": 56.230085,
    "longitude": -4.876243,
    "landrangerMaps": [
      "56"
    ],
    "explorerMaps": [
      "OL37N",
      "OL39S",
      "363N",
      "364S"
    ],
    "id": "QgmEnKjw",
    "name": "Beinn an Lochain"
  },
  {
    "number": 20,
    "regionNumber": "2B",
    "regionName": "Glen Lyon to Glen Dochart & Loch Tay",
    "height": 901.0,
    "latitude": 56.467652,
    "longitude": -4.700459,
    "landrangerMaps": [
      "50"
    ],
    "explorerMaps": [
      "377E"
    ],
    "id": "LvmLxQmx",
    "name": "Beinn Odhar"
  },
  {
    "number": 21,
    "regionNumber": "10B",
    "regionName": "Knoydart to Glen Kingie",
    "height": 901.0,
    "latitude": 57.028875,
    "longitude": -5.317877,
    "landrangerMaps": [
      "33",
      "40"
    ],
    "explorerMaps": [
      "398E",
      "399"
    ],
    "id": "83mWX9jx",
    "name": "Sgurr an Fhuarain"
  },
  {
    "number": 22,
    "regionNumber": "6A",
    "regionName": "Glen Tromie to Glen Tilt",
    "height": 900.8,
    "latitude": 56.860948,
    "longitude": -3.838457,
    "landrangerMaps": [
      "43"
    ],
    "explorerMaps": [
      "OL51E",
      "394E"
    ],
    "id": "1dYlznmN",
    "name": "Beinn Mheadhonach"
  },
  {
    "number": 23,
    "regionNumber": "8B",
    "regionName": "Cairngorms",
    "height": 900.0,
    "latitude": 57.073355,
    "longitude": -3.331871,
    "landrangerMaps": [
      "36",
      "43"
    ],
    "explorerMaps": [
      "OL58S",
      "404S"
    ],
    "id": "3Rr06Wjk",
    "name": "Culardoch"
  },
  {
    "number": 24,
    "regionNumber": "12B",
    "regionName": "Killilan to Inverness",
    "height": 899.0,
    "latitude": 57.341161,
    "longitude": -5.229309,
    "landrangerMaps": [
      "25"
    ],
    "explorerMaps": [
      "414N",
      "429"
    ],
    "id": "Dlrwe7jQ",
    "name": "Aonach Buidhe"
  },
  {
    "number": 25,
    "regionNumber": "10B",
    "regionName": "Knoydart to Glen Kingie",
    "height": 898.0,
    "latitude": 57.087947,
    "longitude": -5.422658,
    "landrangerMaps": [
      "33"
    ],
    "explorerMaps": [
      "413S"
    ],
    "id": "2VjxzXrQ",
    "name": "Sgurr nan Eugallt"
  },
  {
    "number": 26,
    "regionNumber": "3C",
    "regionName": "Glen Etive to Glen Lochy",
    "height": 897.0,
    "latitude": 56.408911,
    "longitude": -5.09044,
    "landrangerMaps": [
      "50"
    ],
    "explorerMaps": [
      "360N",
      "377W"
    ],
    "id": "ZGjOR1my",
    "name": "Beinn a' Bhuiridh"
  },
  {
    "number": 27,
    "regionNumber": "7B",
    "regionName": "Braemar to Montrose",
    "height": 896.0,
    "latitude": 56.858703,
    "longitude": -3.029169,
    "landrangerMaps": [
      "44"
    ],
    "explorerMaps": [
      "OL53S",
      "388S"
    ],
    "id": "1Vj2w8Y2",
    "name": "Ben Tirran"
  },
  {
    "number": 28,
    "regionNumber": "9B",
    "regionName": "Glen Albyn and the Monadh Liath",
    "height": 896.0,
    "latitude": 57.051993,
    "longitude": -4.539681,
    "landrangerMaps": [
      "34"
    ],
    "explorerMaps": [
      "OL55",
      "401"
    ],
    "id": "1Xr35Zj8",
    "name": "Gairbeinn"
  },
  {
    "number": 29,
    "regionNumber": "13A",
    "regionName": "Loch Torridon to Loch Maree",
    "height": 896.0,
    "latitude": 57.596383,
    "longitude": -5.393975,
    "landrangerMaps": [
      "19"
    ],
    "explorerMaps": [
      "433"
    ],
    "id": "Z1jP6Pr2",
    "name": "Ruadh-stac Beag"
  },
  {
    "number": 30,
    "regionNumber": "13B",
    "regionName": "Applecross to Achnasheen",
    "height": 896.0,
    "latitude": 57.442348,
    "longitude": -5.661686,
    "landrangerMaps": [
      "24"
    ],
    "explorerMaps": [
      "428N",
      "428S"
    ],
    "id": "NVmVD1Yw",
    "name": "Beinn Bhan"
  },
  {
    "number": 31,
    "regionNumber": "8B",
    "regionName": "Cairngorms",
    "height": 895.0,
    "latitude": 57.124246,
    "longitude": -3.558416,
    "landrangerMaps": [
      "36"
    ],
    "explorerMaps": [
      "OL57S",
      "OL58S",
      "403S",
      "404S"
    ],
    "id": "aBjZezmM",
    "name": "Creag Mhor"
  },
  {
    "number": 32,
    "regionNumber": "5A",
    "regionName": "Loch Ericht to Glen Tromie & Glen Garry",
    "height": 892.0,
    "latitude": 56.729024,
    "longitude": -4.151523,
    "landrangerMaps": [
      "42"
    ],
    "explorerMaps": [
      "OL49W",
      "386W"
    ],
    "id": "b1mDz3Y8",
    "name": "Beinn a' Chuallaich"
  },
  {
    "number": 33,
    "regionNumber": "13B",
    "regionName": "Applecross to Achnasheen",
    "height": 892.0,
    "latitude": 57.475016,
    "longitude": -5.468323,
    "landrangerMaps": [
      "25"
    ],
    "explorerMaps": [
      "429"
    ],
    "id": "AdrJ22rW",
    "name": "An Ruadh-stac"
  },
  {
    "number": 34,
    "regionNumber": "15A",
    "regionName": "Loch Broom to Strath Oykel",
    "height": 890.0,
    "latitude": 57.779101,
    "longitude": -4.986727,
    "landrangerMaps": [
      "20"
    ],
    "explorerMaps": [
      "436N"
    ],
    "id": "D6reEory",
    "name": "Beinn Enaiglair"
  },
  {
    "number": 35,
    "regionNumber": "1A",
    "regionName": "Loch Tay to Perth",
    "height": 888.0,
    "latitude": 56.506918,
    "longitude": -4.041691,
    "landrangerMaps": [
      "51",
      "52"
    ],
    "explorerMaps": [
      "OL48E",
      "378E"
    ],
    "id": "MEmqd0rJ",
    "name": "Creagan na Beinne"
  },
  {
    "number": 36,
    "regionNumber": "11B",
    "regionName": "Glen Affric to Glen Moriston",
    "height": 888.0,
    "latitude": 57.216381,
    "longitude": -5.026852,
    "landrangerMaps": [
      "34"
    ],
    "explorerMaps": [
      "415"
    ],
    "id": "nNrG24Y4",
    "name": "Aonach Shasuinn"
  },
  {
    "number": 37,
    "regionNumber": "18B",
    "regionName": "Sunart and Ardgour",
    "height": 888.0,
    "latitude": 56.754656,
    "longitude": -5.453786,
    "landrangerMaps": [
      "40"
    ],
    "explorerMaps": [
      "391"
    ],
    "id": "l8rvlZjG",
    "name": "Sgurr Dhomhnuill"
  },
  {
    "number": 38,
    "regionNumber": "10B",
    "regionName": "Knoydart to Glen Kingie",
    "height": 887.0,
    "latitude": 57.030736,
    "longitude": -5.463143,
    "landrangerMaps": [
      "33",
      "40"
    ],
    "explorerMaps": [
      "398E",
      "413S"
    ],
    "id": "RVY4E0rJ",
    "name": "Ben Aden [Beinn an Aodainn]"
  },
  {
    "number": 39,
    "regionNumber": "13A",
    "regionName": "Loch Torridon to Loch Maree",
    "height": 887.0,
    "latitude": 57.615191,
    "longitude": -5.390202,
    "landrangerMaps": [
      "19"
    ],
    "explorerMaps": [
      "433"
    ],
    "id": "EVjzODYb",
    "name": "Meall a' Ghiubhais [Meall a' Ghiuthais]"
  },
  {
    "number": 40,
    "regionNumber": "2B",
    "regionName": "Glen Lyon to Glen Dochart & Loch Tay",
    "height": 886.0,
    "latitude": 56.490614,
    "longitude": -4.686104,
    "landrangerMaps": [
      "50"
    ],
    "explorerMaps": [
      "377E"
    ],
    "id": "JEjQoara",
    "name": "Beinn a' Chaisteil"
  },
  {
    "number": 41,
    "regionNumber": "10A",
    "regionName": "Glen Shiel to Loch Hourn and Loch Quoich",
    "height": 885.5,
    "latitude": 57.127133,
    "longitude": -5.366446,
    "landrangerMaps": [
      "33"
    ],
    "explorerMaps": [
      "414S"
    ],
    "id": "p5moz4r4",
    "name": "Buidhe Bheinn"
  },
  {
    "number": 42,
    "regionNumber": "18B",
    "regionName": "Sunart and Ardgour",
    "height": 885.0,
    "latitude": 56.704449,
    "longitude": -5.425008,
    "landrangerMaps": [
      "40"
    ],
    "explorerMaps": [
      "391"
    ],
    "id": "9RmRKRj8",
    "name": "Garbh Bheinn"
  },
  {
    "number": 43,
    "regionNumber": "1D",
    "regionName": "Inveraray to Crianlarich",
    "height": 884.0,
    "latitude": 56.213037,
    "longitude": -4.808042,
    "landrangerMaps": [
      "56"
    ],
    "explorerMaps": [
      "OL39S",
      "364S"
    ],
    "id": "3ArXA9m1",
    "name": "The Cobbler [Ben Arthur]"
  },
  {
    "number": 44,
    "regionNumber": "2B",
    "regionName": "Glen Lyon to Glen Dochart & Loch Tay",
    "height": 884.0,
    "latitude": 56.476037,
    "longitude": -4.639096,
    "landrangerMaps": [
      "50"
    ],
    "explorerMaps": [
      "OL48W",
      "377E",
      "378W"
    ],
    "id": "RKjAzyYx",
    "name": "Cam Chreag"
  },
  {
    "number": 45,
    "regionNumber": "3C",
    "regionName": "Glen Etive to Glen Lochy",
    "height": 883.0,
    "latitude": 56.595405,
    "longitude": -4.988114,
    "landrangerMaps": [
      "50"
    ],
    "explorerMaps": [
      "384"
    ],
    "id": "07Yy7Vm5",
    "name": "Stob Dubh"
  },
  {
    "number": 46,
    "regionNumber": "18A",
    "regionName": "Moidart and Ardnamurchan",
    "height": 882.0,
    "latitude": 56.842222,
    "longitude": -5.532394,
    "landrangerMaps": [
      "40"
    ],
    "explorerMaps": [
      "391"
    ],
    "id": "kXr10WYL",
    "name": "Beinn Odhar Bheag"
  },
  {
    "number": 47,
    "regionNumber": "18A",
    "regionName": "Moidart and Ardnamurchan",
    "height": 882.0,
    "latitude": 56.837626,
    "longitude": -5.680425,
    "landrangerMaps": [
      "40"
    ],
    "explorerMaps": [
      "390E"
    ],
    "id": "GojN25j2",
    "name": "Rois-Bheinn"
  },
  {
    "number": 48,
    "regionNumber": "1D",
    "regionName": "Inveraray to Crianlarich",
    "height": 880.0,
    "latitude": 56.423887,
    "longitude": -4.789867,
    "landrangerMaps": [
      "50"
    ],
    "explorerMaps": [
      "OL39N",
      "364N",
      "377E"
    ],
    "id": "04m80NmL",
    "name": "Beinn Chuirn"
  },
  {
    "number": 49,
    "regionNumber": "10B",
    "regionName": "Knoydart to Glen Kingie",
    "height": 880.0,
    "latitude": 56.998469,
    "longitude": -5.273676,
    "landrangerMaps": [
      "33"
    ],
    "explorerMaps": [
      "399"
    ],
    "id": "azY9wamn",
    "name": "Sgurr Mhurlagain"
  },
  {
    "number": 50,
    "regionNumber": "1A",
    "regionName": "Loch Tay to Perth",
    "height": 879.0,
    "latitude": 56.465278,
    "longitude": -4.098107,
    "landrangerMaps": [
      "51",
      "52"
    ],
    "explorerMaps": [
      "OL48E",
      "378E"
    ],
    "id": "qajgWojk",
    "name": "Creag Uchdag"
  },
  {
    "number": 51,
    "regionNumber": "1C",
    "regionName": "Loch Lomond to Strathyre",
    "height": 879.0,
    "latitude": 56.258659,
    "longitude": -4.322375,
    "landrangerMaps": [
      "57"
    ],
    "explorerMaps": [
      "OL46S",
      "365S"
    ],
    "id": "A3j6WbYO",
    "name": "Ben Ledi"
  },
  {
    "number": 52,
    "regionNumber": "3B",
    "regionName": "Loch Linnhe to Loch Etive",
    "height": 879.0,
    "latitude": 56.615678,
    "longitude": -5.213625,
    "landrangerMaps": [
      "41"
    ],
    "explorerMaps": [
      "384"
    ],
    "id": "3Pr7lDmk",
    "name": "Fraochaidh"
  },
  {
    "number": 53,
    "regionNumber": "12A",
    "regionName": "Kyle of Lochalsh to Garve",
    "height": 879.0,
    "latitude": 57.558383,
    "longitude": -4.902303,
    "landrangerMaps": [
      "25"
    ],
    "explorerMaps": [
      "430"
    ],
    "id": "1grnVarK",
    "name": "Sgurr a' Mhuilinn"
  },
  {
    "number": 54,
    "regionNumber": "12B",
    "regionName": "Killilan to Inverness",
    "height": 879.0,
    "latitude": 57.31878,
    "longitude": -5.361278,
    "landrangerMaps": [
      "25"
    ],
    "explorerMaps": [
      "414N",
      "429"
    ],
    "id": "RVYpV6m6",
    "name": "Sguman Coinntich"
  },
  {
    "number": 55,
    "regionNumber": "9B",
    "regionName": "Glen Albyn and the Monadh Liath",
    "height": 878.0,
    "latitude": 57.137355,
    "longitude": -4.107357,
    "landrangerMaps": [
      "35"
    ],
    "explorerMaps": [
      "OL56",
      "402"
    ],
    "id": "8AjBO8Y5",
    "name": "Carn an Fhreiceadain"
  },
  {
    "number": 56,
    "regionNumber": "6A",
    "regionName": "Glen Tromie to Glen Tilt",
    "height": 875.0,
    "latitude": 56.90042,
    "longitude": -4.078177,
    "landrangerMaps": [
      "42"
    ],
    "explorerMaps": [
      "OL51W",
      "394W"
    ],
    "id": "PEmd5njW",
    "name": "A' Chaoirnich [Maol Creag an Loch]"
  },
  {
    "number": 57,
    "regionNumber": "13A",
    "regionName": "Loch Torridon to Loch Maree",
    "height": 875.0,
    "latitude": 57.628246,
    "longitude": -5.568633,
    "landrangerMaps": [
      "19",
      "24"
    ],
    "explorerMaps": [
      "433"
    ],
    "id": "9KYM2Rr7",
    "name": "Baosbheinn"
  },
  {
    "number": 58,
    "regionNumber": "18A",
    "regionName": "Moidart and Ardnamurchan",
    "height": 874.0,
    "latitude": 56.837554,
    "longitude": -5.657223,
    "landrangerMaps": [
      "40"
    ],
    "explorerMaps": [
      "390E"
    ],
    "id": "3Xra4pYD",
    "name": "Sgurr na Ba Glaise"
  },
  {
    "number": 59,
    "regionNumber": "20C",
    "regionName": "Arran and Holy Island",
    "height": 874.0,
    "latitude": 55.625831,
    "longitude": -5.191881,
    "landrangerMaps": [
      "62",
      "69"
    ],
    "explorerMaps": [
      "361N"
    ],
    "id": "gejbqkmK",
    "name": "Goatfell [Goat Fell]"
  },
  {
    "number": 60,
    "regionNumber": "16B",
    "regionName": "Durness to Loch Shin",
    "height": 873.0,
    "latitude": 58.265889,
    "longitude": -4.68391,
    "landrangerMaps": [
      "16"
    ],
    "explorerMaps": [
      "440N",
      "447S"
    ],
    "id": "9xrkNDY2",
    "name": "Ben Hee"
  },
  {
    "number": 61,
    "regionNumber": "21A",
    "regionName": "Tomintoul to Banff",
    "height": 872.0,
    "latitude": 57.122639,
    "longitude": -3.03088,
    "landrangerMaps": [
      "37"
    ],
    "explorerMaps": [
      "OL59W",
      "405W"
    ],
    "id": "MRmK3yme",
    "name": "Morven"
  },
  {
    "number": 62,
    "regionNumber": "13B",
    "regionName": "Applecross to Achnasheen",
    "height": 871.0,
    "latitude": 57.522771,
    "longitude": -5.393259,
    "landrangerMaps": [
      "25"
    ],
    "explorerMaps": [
      "429"
    ],
    "id": "K2r5LdYR",
    "name": "Sgorr nan Lochan Uaine"
  },
  {
    "number": 63,
    "regionNumber": "1C",
    "regionName": "Loch Lomond to Strathyre",
    "height": 869.0,
    "latitude": 56.309674,
    "longitude": -4.560146,
    "landrangerMaps": [
      "56"
    ],
    "explorerMaps": [
      "OL46N",
      "365N"
    ],
    "id": "QgmEdKrw",
    "name": "Stob a' Choin"
  },
  {
    "number": 64,
    "regionNumber": "4B",
    "regionName": "Loch Treig to Loch Ericht",
    "height": 868.0,
    "latitude": 56.743606,
    "longitude": -4.538978,
    "landrangerMaps": [
      "42"
    ],
    "explorerMaps": [
      "385E",
      "385W"
    ],
    "id": "LvmL7Qrx",
    "name": "Beinn Pharlagain [Ben Pharlagain - Meall na Meoig]"
  },
  {
    "number": 65,
    "regionNumber": "12B",
    "regionName": "Killilan to Inverness",
    "height": 868.0,
    "latitude": 57.332915,
    "longitude": -5.288039,
    "landrangerMaps": [
      "25"
    ],
    "explorerMaps": [
      "414N",
      "429"
    ],
    "id": "83mW39mx",
    "name": "Faochaig"
  },
  {
    "number": 66,
    "regionNumber": "3A",
    "regionName": "Loch Leven to Rannoch Station",
    "height": 867.0,
    "latitude": 56.696584,
    "longitude": -4.991428,
    "landrangerMaps": [
      "41"
    ],
    "explorerMaps": [
      "384"
    ],
    "id": "1dYldnYN",
    "name": "Garbh Bheinn"
  },
  {
    "number": 67,
    "regionNumber": "10D",
    "regionName": "Mallaig to Fort William",
    "height": 867.0,
    "latitude": 56.980354,
    "longitude": -5.475517,
    "landrangerMaps": [
      "33",
      "40"
    ],
    "explorerMaps": [
      "398E"
    ],
    "id": "3Rr0lWrk",
    "name": "Bidein a' Chabair"
  },
  {
    "number": 68,
    "regionNumber": "7A",
    "regionName": "Braemar to Montrose",
    "height": 865.0,
    "latitude": 56.964274,
    "longitude": -3.186547,
    "landrangerMaps": [
      "44"
    ],
    "explorerMaps": [
      "OL53N",
      "388N"
    ],
    "id": "Dlrw07mQ",
    "name": "Conachcraig"
  },
  {
    "number": 69,
    "regionNumber": "11B",
    "regionName": "Glen Affric to Glen Moriston",
    "height": 865.0,
    "latitude": 57.222594,
    "longitude": -5.087627,
    "landrangerMaps": [
      "34"
    ],
    "explorerMaps": [
      "414N"
    ],
    "id": "2VjxwXmQ",
    "name": "Carn a' Choire Ghairbh"
  },
  {
    "number": 70,
    "regionNumber": "3C",
    "regionName": "Glen Etive to Glen Lochy",
    "height": 864.0,
    "latitude": 56.610061,
    "longitude": -4.899477,
    "landrangerMaps": [
      "41"
    ],
    "explorerMaps": [
      "384"
    ],
    "id": "ZGjOD1Yy",
    "name": "Beinn Mhic Chasgaig"
  },
  {
    "number": 71,
    "regionNumber": "8B",
    "regionName": "Cairngorms",
    "height": 863.0,
    "latitude": 57.066716,
    "longitude": -3.391294,
    "landrangerMaps": [
      "36",
      "43"
    ],
    "explorerMaps": [
      "OL58S",
      "404S"
    ],
    "id": "1Vj2P8r2",
    "name": "Creag an Dail Bheag"
  },
  {
    "number": 72,
    "regionNumber": "12A",
    "regionName": "Kyle of Lochalsh to Garve",
    "height": 863.0,
    "latitude": 57.438689,
    "longitude": -5.241955,
    "landrangerMaps": [
      "25"
    ],
    "explorerMaps": [
      "429"
    ],
    "id": "1Xr3PZm8",
    "name": "Beinn Tharsuinn"
  },
  {
    "number": 73,
    "regionNumber": "12A",
    "regionName": "Kyle of Lochalsh to Garve",
    "height": 863.0,
    "latitude": 57.457045,
    "longitude": -5.243648,
    "landrangerMaps": [
      "25"
    ],
    "explorerMaps": [
      "429"
    ],
    "id": "Z1jPkPm2",
    "name": "Sgurr na Feartaig"
  },
  {
    "number": 74,
    "regionNumber": "2A",
    "regionName": "Loch Rannoch to Glen Lyon",
    "height": 862.0,
    "latitude": 56.611086,
    "longitude": -4.385627,
    "landrangerMaps": [
      "51"
    ],
    "explorerMaps": [
      "OL48W",
      "378W"
    ],
    "id": "NVmV21mw",
    "name": "Cam Chreag"
  },
  {
    "number": 75,
    "regionNumber": "9B",
    "regionName": "Glen Albyn and the Monadh Liath",
    "height": 862.0,
    "latitude": 57.067424,
    "longitude": -4.450362,
    "landrangerMaps": [
      "35"
    ],
    "explorerMaps": [
      "OL55",
      "401"
    ],
    "id": "aBjZZzjM",
    "name": "Meall na h-Aisre"
  },
  {
    "number": 76,
    "regionNumber": "12A",
    "regionName": "Kyle of Lochalsh to Garve",
    "height": 862.0,
    "latitude": 57.451935,
    "longitude": -4.733922,
    "landrangerMaps": [
      "26"
    ],
    "explorerMaps": [
      "431"
    ],
    "id": "b1mDW3r8",
    "name": "Beinn a' Bhathaich Ard [Beinn a' Bha' ach Ard]"
  },
  {
    "number": 77,
    "regionNumber": "6B",
    "regionName": "Pitlochry to Braemar & Blairgowrie",
    "height": 859.0,
    "latitude": 56.980852,
    "longitude": -3.429599,
    "landrangerMaps": [
      "43"
    ],
    "explorerMaps": [
      "OL52N",
      "OL58S",
      "387N",
      "404S"
    ],
    "id": "AdrJB2rW",
    "name": "Morrone"
  },
  {
    "number": 78,
    "regionNumber": "14A",
    "regionName": "Loch Maree to Loch Broom",
    "height": 859.0,
    "latitude": 57.703824,
    "longitude": -5.38922,
    "landrangerMaps": [
      "19"
    ],
    "explorerMaps": [
      "433"
    ],
    "id": "D6reoojy",
    "name": "Beinn Lair"
  },
  {
    "number": 79,
    "regionNumber": "20C",
    "regionName": "Arran and Holy Island",
    "height": 859.0,
    "latitude": 55.649881,
    "longitude": -5.229295,
    "landrangerMaps": [
      "62",
      "69"
    ],
    "explorerMaps": [
      "361N"
    ],
    "id": "MEmq60jJ",
    "name": "Caisteal Abhail"
  },
  {
    "number": 80,
    "regionNumber": "1D",
    "regionName": "Inveraray to Crianlarich",
    "height": 858.0,
    "latitude": 56.231249,
    "longitude": -4.836341,
    "landrangerMaps": [
      "56"
    ],
    "explorerMaps": [
      "OL37N",
      "OL39S",
      "363N",
      "364S"
    ],
    "id": "nNrGw4r4",
    "name": "Beinn Luibhean"
  },
  {
    "number": 81,
    "regionNumber": "10B",
    "regionName": "Knoydart to Glen Kingie",
    "height": 858.0,
    "latitude": 56.993482,
    "longitude": -5.316898,
    "landrangerMaps": [
      "33",
      "40"
    ],
    "explorerMaps": [
      "398E",
      "399"
    ],
    "id": "l8rv1ZYG",
    "name": "Fraoch Bheinn"
  },
  {
    "number": 82,
    "regionNumber": "3A",
    "regionName": "Loch Leven to Rannoch Station",
    "height": 857.0,
    "latitude": 56.668905,
    "longitude": -4.863529,
    "landrangerMaps": [
      "41"
    ],
    "explorerMaps": [
      "384"
    ],
    "id": "RVY4A0rJ",
    "name": "Beinn a' Chrulaiste"
  },
  {
    "number": 83,
    "regionNumber": "4A",
    "regionName": "Fort William to Loch Treig & Loch Leven",
    "height": 857.0,
    "latitude": 56.84684,
    "longitude": -4.821936,
    "landrangerMaps": [
      "41"
    ],
    "explorerMaps": [
      "392"
    ],
    "id": "EVjzRDjb",
    "name": "Cruach Innse"
  },
  {
    "number": 84,
    "regionNumber": "6A",
    "regionName": "Glen Tromie to Glen Tilt",
    "height": 857.0,
    "latitude": 56.996795,
    "longitude": -3.938665,
    "landrangerMaps": [
      "35",
      "43"
    ],
    "explorerMaps": [
      "OL56",
      "402"
    ],
    "id": "JEjQ2aYa",
    "name": "Carn Dearg Mor"
  },
  {
    "number": 85,
    "regionNumber": "14A",
    "regionName": "Loch Maree to Loch Broom",
    "height": 856.0,
    "latitude": 57.751174,
    "longitude": -5.392091,
    "landrangerMaps": [
      "19"
    ],
    "explorerMaps": [
      "435N"
    ],
    "id": "p5mow4m4",
    "name": "Beinn a' Chaisgein Mor"
  },
  {
    "number": 86,
    "regionNumber": "5A",
    "regionName": "Loch Ericht to Glen Tromie & Glen Garry",
    "height": 855.0,
    "latitude": 56.793293,
    "longitude": -4.396092,
    "landrangerMaps": [
      "42"
    ],
    "explorerMaps": [
      "OL50",
      "385E",
      "393"
    ],
    "id": "9RmRDRY8",
    "name": "Stob an Aonaich Mhoir"
  },
  {
    "number": 87,
    "regionNumber": "10B",
    "regionName": "Knoydart to Glen Kingie",
    "height": 855.0,
    "latitude": 57.010102,
    "longitude": -5.589145,
    "landrangerMaps": [
      "33",
      "40"
    ],
    "explorerMaps": [
      "398E"
    ],
    "id": "3ArXo9Y1",
    "name": "Beinn Bhuidhe"
  },
  {
    "number": 88,
    "regionNumber": "13A",
    "regionName": "Loch Torridon to Loch Maree",
    "height": 855.0,
    "latitude": 57.622829,
    "longitude": -5.509791,
    "landrangerMaps": [
      "19"
    ],
    "explorerMaps": [
      "433"
    ],
    "id": "RKjA5yjx",
    "name": "Beinn an Eoin"
  },
  {
    "number": 89,
    "regionNumber": "18C",
    "regionName": "Morvern and Kingairloch",
    "height": 853.0,
    "latitude": 56.661979,
    "longitude": -5.476201,
    "landrangerMaps": [
      "49"
    ],
    "explorerMaps": [
      "376",
      "383E"
    ],
    "id": "07Yy4Vj5",
    "name": "Creach Bheinn"
  },
  {
    "number": 90,
    "regionNumber": "1C",
    "regionName": "Loch Lomond to Strathyre",
    "height": 852.0,
    "latitude": 56.380403,
    "longitude": -4.362598,
    "landrangerMaps": [
      "51"
    ],
    "explorerMaps": [
      "OL46N",
      "365N"
    ],
    "id": "kXr1PWYL",
    "name": "Meall an t-Seallaidh"
  },
  {
    "number": 91,
    "regionNumber": "2B",
    "regionName": "Glen Lyon to Glen Dochart & Loch Tay",
    "height": 849.0,
    "latitude": 56.44413,
    "longitude": -4.565842,
    "landrangerMaps": [
      "51"
    ],
    "explorerMaps": [
      "OL48W",
      "378W"
    ],
    "id": "GojNe5m2",
    "name": "Beinn nan Imirean"
  },
  {
    "number": 92,
    "regionNumber": "12A",
    "regionName": "Kyle of Lochalsh to Garve",
    "height": 849.0,
    "latitude": 57.495759,
    "longitude": -4.968274,
    "landrangerMaps": [
      "25"
    ],
    "explorerMaps": [
      "430"
    ],
    "id": "04m8DNmL",
    "name": "Bac an Eich"
  },
  {
    "number": 93,
    "regionNumber": "16F",
    "regionName": "Lochinver to Ullapool",
    "height": 849.0,
    "latitude": 58.058124,
    "longitude": -5.116768,
    "landrangerMaps": [
      "15"
    ],
    "explorerMaps": [
      "439E"
    ],
    "id": "azY9zarn",
    "name": "Cul Mor"
  },
  {
    "number": 94,
    "regionNumber": "18B",
    "regionName": "Sunart and Ardgour",
    "height": 849.0,
    "latitude": 56.818945,
    "longitude": -5.482559,
    "landrangerMaps": [
      "40"
    ],
    "explorerMaps": [
      "391"
    ],
    "id": "qajgQork",
    "name": "Sgurr Ghiubhsachain"
  },
  {
    "number": 95,
    "regionNumber": "16F",
    "regionName": "Lochinver to Ullapool",
    "height": 847.0,
    "latitude": 58.120906,
    "longitude": -5.052849,
    "landrangerMaps": [
      "15"
    ],
    "explorerMaps": [
      "442E"
    ],
    "id": "A3j6ybmO",
    "name": "Canisp"
  },
  {
    "number": 96,
    "regionNumber": "19C",
    "regionName": "Loch Fyne to Bute and the Firth of Clyde",
    "height": 847.0,
    "latitude": 56.19792,
    "longitude": -4.87327,
    "landrangerMaps": [
      "56"
    ],
    "explorerMaps": [
      "OL37N",
      "OL39S",
      "363N",
      "364S"
    ],
    "id": "3Pr7PDmk",
    "name": "Ben Donich"
  },
  {
    "number": 97,
    "regionNumber": "18B",
    "regionName": "Sunart and Ardgour",
    "height": 845.0,
    "latitude": 56.727189,
    "longitude": -5.652605,
    "landrangerMaps": [
      "40"
    ],
    "explorerMaps": [
      "390E"
    ],
    "id": "1grnKamK",
    "name": "Beinn Resipol"
  },
  {
    "number": 98,
    "regionNumber": "27B",
    "regionName": "Carrick and Galloway",
    "height": 843.0,
    "latitude": 55.139271,
    "longitude": -4.468411,
    "landrangerMaps": [
      "77"
    ],
    "explorerMaps": [
      "318"
    ],
    "id": "RVYpx6Y6",
    "name": "Merrick"
  },
  {
    "number": 99,
    "regionNumber": "6B",
    "regionName": "Pitlochry to Braemar & Blairgowrie",
    "height": 842.0,
    "latitude": 56.748956,
    "longitude": -3.717273,
    "landrangerMaps": [
      "43"
    ],
    "explorerMaps": [
      "OL49E",
      "386E"
    ],
    "id": "8AjBE8m5",
    "name": "Ben Vrackie"
  },
  {
    "number": 100,
    "regionNumber": "15A",
    "regionName": "Loch Broom to Strath Oykel",
    "height": 842.0,
    "latitude": 57.846772,
    "longitude": -4.801042,
    "landrangerMaps": [
      "20"
    ],
    "explorerMaps": [
      "437N"
    ],
    "id": "PEmdQnjW",
    "name": "Carn Ban"
  },
  {
    "number": 101,
    "regionNumber": "5A",
    "regionName": "Loch Ericht to Glen Tromie & Glen Garry",
    "height": 841.7,
    "latitude": 56.759525,
    "longitude": -4.3121,
    "landrangerMaps": [
      "42"
    ],
    "explorerMaps": [
      "385E"
    ],
    "id": "9KYMbRr7",
    "name": "Beinn Mholach"
  },
  {
    "number": 102,
    "regionNumber": "11A",
    "regionName": "Loch Duich to Cannich",
    "height": 841.0,
    "latitude": 57.248593,
    "longitude": -5.415477,
    "landrangerMaps": [
      "25",
      "33"
    ],
    "explorerMaps": [
      "413N",
      "414N"
    ],
    "id": "3XraKpjD",
    "name": "Sgurr an Airgid"
  },
  {
    "number": 103,
    "regionNumber": "21A",
    "regionName": "Tomintoul to Banff",
    "height": 841.0,
    "latitude": 57.403275,
    "longitude": -3.241496,
    "landrangerMaps": [
      "28"
    ],
    "explorerMaps": [
      "424S"
    ],
    "id": "gejbQkmK",
    "name": "Ben Rinnes"
  },
  {
    "number": 104,
    "regionNumber": "3B",
    "regionName": "Loch Linnhe to Loch Etive",
    "height": 840.0,
    "latitude": 56.547978,
    "longitude": -5.114433,
    "landrangerMaps": [
      "50"
    ],
    "explorerMaps": [
      "377W"
    ],
    "id": "9xrkLDm2",
    "name": "Beinn Trilleachan"
  },
  {
    "number": 105,
    "regionNumber": "3C",
    "regionName": "Glen Etive to Glen Lochy",
    "height": 840.0,
    "latitude": 56.458886,
    "longitude": -4.791931,
    "landrangerMaps": [
      "50"
    ],
    "explorerMaps": [
      "377E"
    ],
    "id": "MRmKByre",
    "name": "Beinn Udlaidh"
  },
  {
    "number": 106,
    "regionNumber": "28B",
    "regionName": "The River Tweed to the English Border",
    "height": 840.0,
    "latitude": 55.498143,
    "longitude": -3.352731,
    "landrangerMaps": [
      "72"
    ],
    "explorerMaps": [
      "330",
      "336"
    ],
    "id": "K2r5PdYR",
    "name": "Broad Law"
  },
  {
    "number": 107,
    "regionNumber": "11A",
    "regionName": "Loch Duich to Cannich",
    "height": 839.0,
    "latitude": 57.245255,
    "longitude": -5.256941,
    "landrangerMaps": [
      "25",
      "33"
    ],
    "explorerMaps": [
      "414N"
    ],
    "id": "QgmElKrw",
    "name": "Sgurr Gaorsaic"
  },
  {
    "number": 108,
    "regionNumber": "15B",
    "regionName": "Loch Vaich to Moray Firth",
    "height": 839.0,
    "latitude": 57.813803,
    "longitude": -4.554142,
    "landrangerMaps": [
      "20"
    ],
    "explorerMaps": [
      "437N"
    ],
    "id": "LvmLDQmx",
    "name": "Carn Chuinneag"
  },
  {
    "number": 109,
    "regionNumber": "10C",
    "regionName": "Loch Arkaig to Glen Moriston",
    "height": 838.0,
    "latitude": 57.007047,
    "longitude": -4.989603,
    "landrangerMaps": [
      "34"
    ],
    "explorerMaps": [
      "399",
      "400"
    ],
    "id": "83mWz9rx",
    "name": "Meall na h-Eilde"
  },
  {
    "number": 110,
    "regionNumber": "12A",
    "regionName": "Kyle of Lochalsh to Garve",
    "height": 838.0,
    "latitude": 57.546909,
    "longitude": -4.902962,
    "landrangerMaps": [
      "25"
    ],
    "explorerMaps": [
      "430"
    ],
    "id": "1dYlWnjN",
    "name": "Meallan nan Uan"
  },
  {
    "number": 111,
    "regionNumber": "2A",
    "regionName": "Loch Rannoch to Glen Lyon",
    "height": 837.0,
    "latitude": 56.574164,
    "longitude": -4.514792,
    "landrangerMaps": [
      "51"
    ],
    "explorerMaps": [
      "OL48W",
      "378W"
    ],
    "id": "3Rr0MWmk",
    "name": "Sron a' Choire Chnapanich [Sron a' Choire Chnapanaich]"
  },
  {
    "number": 112,
    "regionNumber": "10B",
    "regionName": "Knoydart to Glen Kingie",
    "height": 835.0,
    "latitude": 56.997429,
    "longitude": -5.37999,
    "landrangerMaps": [
      "33",
      "40"
    ],
    "explorerMaps": [
      "398E"
    ],
    "id": "Dlrw17jQ",
    "name": "Sgurr Cos na Breachd-laoidh"
  },
  {
    "number": 113,
    "regionNumber": "7A",
    "regionName": "Braemar to Montrose",
    "height": 834.0,
    "latitude": 56.940515,
    "longitude": -3.391006,
    "landrangerMaps": [
      "43"
    ],
    "explorerMaps": [
      "OL52N",
      "387N"
    ],
    "id": "2VjxdXjQ",
    "name": "Creag nan Gabhar"
  },
  {
    "number": 114,
    "regionNumber": "9C",
    "regionName": "Loch Lochy to Loch Laggan",
    "height": 834.0,
    "latitude": 56.959813,
    "longitude": -4.723327,
    "landrangerMaps": [
      "34",
      "41"
    ],
    "explorerMaps": [
      "400"
    ],
    "id": "ZGjOx1Yy",
    "name": "Carn Dearg"
  },
  {
    "number": 115,
    "regionNumber": "2A",
    "regionName": "Loch Rannoch to Glen Lyon",
    "height": 830.0,
    "latitude": 56.618921,
    "longitude": -4.268971,
    "landrangerMaps": [
      "51"
    ],
    "explorerMaps": [
      "OL48E",
      "OL49W",
      "378E",
      "386W"
    ],
    "id": "1Vj2M8m2",
    "name": "Beinn Dearg"
  },
  {
    "number": 116,
    "regionNumber": "8B",
    "regionName": "Cairngorms",
    "height": 829.0,
    "latitude": 57.124384,
    "longitude": -3.288211,
    "landrangerMaps": [
      "36"
    ],
    "explorerMaps": [
      "OL58S",
      "404S"
    ],
    "id": "1Xr3DZm8",
    "name": "Brown Cow Hill"
  },
  {
    "number": 117,
    "regionNumber": "10D",
    "regionName": "Mallaig to Fort William",
    "height": 829.0,
    "latitude": 56.962009,
    "longitude": -5.450735,
    "landrangerMaps": [
      "33",
      "40"
    ],
    "explorerMaps": [
      "398E"
    ],
    "id": "Z1jPOPm2",
    "name": "Carn Mor"
  },
  {
    "number": 118,
    "regionNumber": "5B",
    "regionName": "Loch Ericht to Glen Tromie & Glen Garry",
    "height": 827.4,
    "latitude": 56.894797,
    "longitude": -4.108635,
    "landrangerMaps": [
      "42"
    ],
    "explorerMaps": [
      "OL51W",
      "394W"
    ],
    "id": "K2r5DGYR",
    "name": "An Dun"
  },
  {
    "number": 119,
    "regionNumber": "20C",
    "regionName": "Arran and Holy Island",
    "height": 826.0,
    "latitude": 55.622154,
    "longitude": -5.241201,
    "landrangerMaps": [
      "62",
      "69"
    ],
    "explorerMaps": [
      "361N"
    ],
    "id": "QgmEoPYw",
    "name": "Beinn Tarsuinn"
  },
  {
    "number": 120,
    "regionNumber": "9B",
    "regionName": "Glen Albyn and the Monadh Liath",
    "height": 824.0,
    "latitude": 57.186945,
    "longitude": -3.926922,
    "landrangerMaps": [
      "35"
    ],
    "explorerMaps": [
      "417"
    ],
    "id": "LvmLlxmx",
    "name": "Geal-charn Mor"
  },
  {
    "number": 121,
    "regionNumber": "1C",
    "regionName": "Loch Lomond to Strathyre",
    "height": 821.0,
    "latitude": 56.293295,
    "longitude": -4.368435,
    "landrangerMaps": [
      "57"
    ],
    "explorerMaps": [
      "OL46N",
      "365N"
    ],
    "id": "83mWw3mx",
    "name": "Benvane"
  },
  {
    "number": 122,
    "regionNumber": "8B",
    "regionName": "Cairngorms",
    "height": 821.0,
    "latitude": 57.196016,
    "longitude": -3.506737,
    "landrangerMaps": [
      "36"
    ],
    "explorerMaps": [
      "OL58N",
      "404N"
    ],
    "id": "1dYl5WrN",
    "name": "Geal Charn"
  },
  {
    "number": 123,
    "regionNumber": "28B",
    "regionName": "The River Tweed to the English Border",
    "height": 821.0,
    "latitude": 55.422578,
    "longitude": -3.323634,
    "landrangerMaps": [
      "79"
    ],
    "explorerMaps": [
      "330"
    ],
    "id": "3Rr0DDrk",
    "name": "White Coomb"
  },
  {
    "number": 124,
    "regionNumber": "14A",
    "regionName": "Loch Maree to Loch Broom",
    "height": 820.0,
    "latitude": 57.775977,
    "longitude": -5.331425,
    "landrangerMaps": [
      "19"
    ],
    "explorerMaps": [
      "435N"
    ],
    "id": "DlrwLWmQ",
    "name": "Beinn Dearg Bheag"
  },
  {
    "number": 125,
    "regionNumber": "2B",
    "regionName": "Glen Lyon to Glen Dochart & Loch Tay",
    "height": 818.0,
    "latitude": 56.458902,
    "longitude": -4.664919,
    "landrangerMaps": [
      "50"
    ],
    "explorerMaps": [
      "377E"
    ],
    "id": "2VjxWbmQ",
    "name": "Beinn Chaorach"
  },
  {
    "number": 126,
    "regionNumber": "8B",
    "regionName": "Cairngorms",
    "height": 818.0,
    "latitude": 57.027417,
    "longitude": -3.439163,
    "landrangerMaps": [
      "36",
      "43"
    ],
    "explorerMaps": [
      "OL58S",
      "404S"
    ],
    "id": "ZGjOxGYy",
    "name": "Carn na Drochaide"
  },
  {
    "number": 127,
    "regionNumber": "12B",
    "regionName": "Killilan to Inverness",
    "height": 818.0,
    "latitude": 57.384228,
    "longitude": -4.860012,
    "landrangerMaps": [
      "25"
    ],
    "explorerMaps": [
      "430"
    ],
    "id": "1Vj2MQm2",
    "name": "Sgorr na Diollaid"
  },
  {
    "number": 128,
    "regionNumber": "1D",
    "regionName": "Inveraray to Crianlarich",
    "height": 817.0,
    "latitude": 56.2577,
    "longitude": -4.857968,
    "landrangerMaps": [
      "50",
      "56"
    ],
    "explorerMaps": [
      "OL37N",
      "OL39S",
      "363N",
      "364S"
    ],
    "id": "1Xr3DXm8",
    "name": "Stob Coire Creagach [Binnein an Fhidhleir]"
  },
  {
    "number": 129,
    "regionNumber": "9B",
    "regionName": "Glen Albyn and the Monadh Liath",
    "height": 817.0,
    "latitude": 57.031129,
    "longitude": -4.720434,
    "landrangerMaps": [
      "34"
    ],
    "explorerMaps": [
      "400"
    ],
    "id": "Z1jPOlm2",
    "name": "Carn Dearg"
  },
  {
    "number": 130,
    "regionNumber": "9B",
    "regionName": "Glen Albyn and the Monadh Liath",
    "height": 817.0,
    "latitude": 57.094268,
    "longitude": -4.614836,
    "landrangerMaps": [
      "34"
    ],
    "explorerMaps": [
      "OL55",
      "401"
    ],
    "id": "NVmV0RYw",
    "name": "Carn a' Chuilinn"
  },
  {
    "number": 131,
    "regionNumber": "16E",
    "regionName": "Scourie to Lairg",
    "height": 815.0,
    "latitude": 58.097384,
    "longitude": -4.908545,
    "landrangerMaps": [
      "15"
    ],
    "explorerMaps": [
      "439E",
      "442E"
    ],
    "id": "aBjZvMjM",
    "name": "Breabag"
  },
  {
    "number": 132,
    "regionNumber": "12A",
    "regionName": "Kyle of Lochalsh to Garve",
    "height": 814.0,
    "latitude": 57.46181,
    "longitude": -5.050778,
    "landrangerMaps": [
      "25"
    ],
    "explorerMaps": [
      "430"
    ],
    "id": "b1mDZQY8",
    "name": "An Sithean [An Sidhean]"
  },
  {
    "number": 133,
    "regionNumber": "18A",
    "regionName": "Moidart and Ardnamurchan",
    "height": 814.0,
    "latitude": 56.850883,
    "longitude": -5.67052,
    "landrangerMaps": [
      "40"
    ],
    "explorerMaps": [
      "390E",
      "398W"
    ],
    "id": "AdrJLWjW",
    "name": "An Stac"
  },
  {
    "number": 134,
    "regionNumber": "27B",
    "regionName": "Carrick and Galloway",
    "height": 814.0,
    "latitude": 55.155082,
    "longitude": -4.359126,
    "landrangerMaps": [
      "77"
    ],
    "explorerMaps": [
      "318"
    ],
    "id": "D6reRbmy",
    "name": "Corserine"
  },
  {
    "number": 135,
    "regionNumber": "1B",
    "regionName": "Strathyre to Strathallan",
    "height": 813.0,
    "latitude": 56.313957,
    "longitude": -4.262199,
    "landrangerMaps": [
      "57"
    ],
    "explorerMaps": [
      "OL46N",
      "365N"
    ],
    "id": "MEmq0DrJ",
    "name": "Beinn Each"
  },
  {
    "number": 136,
    "regionNumber": "8A",
    "regionName": "Cairngorms",
    "height": 813.0,
    "latitude": 57.003153,
    "longitude": -3.636334,
    "landrangerMaps": [
      "43"
    ],
    "explorerMaps": [
      "OL52N",
      "OL57S",
      "387N",
      "403S"
    ],
    "id": "nNrGKNr4",
    "name": "Sgor Mor"
  },
  {
    "number": 137,
    "regionNumber": "17D",
    "regionName": "Canna, Rhum and Eigg",
    "height": 812.0,
    "latitude": 56.974433,
    "longitude": -6.291504,
    "landrangerMaps": [
      "39"
    ],
    "explorerMaps": [
      "397"
    ],
    "id": "l8rvEeYG",
    "name": "Askival"
  },
  {
    "number": 138,
    "regionNumber": "9B",
    "regionName": "Glen Albyn and the Monadh Liath",
    "height": 811.0,
    "latitude": 57.198957,
    "longitude": -4.320534,
    "landrangerMaps": [
      "35"
    ],
    "explorerMaps": [
      "417"
    ],
    "id": "RVY4D4YJ",
    "name": "Carn na Saobhaidhe"
  },
  {
    "number": 139,
    "regionNumber": "3B",
    "regionName": "Loch Linnhe to Loch Etive",
    "height": 810.0,
    "latitude": 56.530492,
    "longitude": -5.215023,
    "landrangerMaps": [
      "50"
    ],
    "explorerMaps": [
      "377W"
    ],
    "id": "EVjz0Lrb",
    "name": "Creach Bheinn"
  },
  {
    "number": 140,
    "regionNumber": "8A",
    "regionName": "Cairngorms",
    "height": 810.0,
    "latitude": 57.18355,
    "longitude": -3.671106,
    "landrangerMaps": [
      "36"
    ],
    "explorerMaps": [
      "OL57N",
      "403N"
    ],
    "id": "JEjQ5Dja",
    "name": "Meall a' Bhuachaille"
  },
  {
    "number": 141,
    "regionNumber": "1B",
    "regionName": "Strathyre to Strathallan",
    "height": 809.0,
    "latitude": 56.341247,
    "longitude": -4.184316,
    "landrangerMaps": [
      "57"
    ],
    "explorerMaps": [
      "OL47W",
      "368W"
    ],
    "id": "p5moWBm4",
    "name": "Meall na Fearna"
  },
  {
    "number": 142,
    "regionNumber": "4A",
    "regionName": "Fort William to Loch Treig & Loch Leven",
    "height": 809.0,
    "latitude": 56.833314,
    "longitude": -4.80398,
    "landrangerMaps": [
      "41"
    ],
    "explorerMaps": [
      "392"
    ],
    "id": "9RmREXr8",
    "name": "Sgurr Innse"
  },
  {
    "number": 143,
    "regionNumber": "16E",
    "regionName": "Scourie to Lairg",
    "height": 809.0,
    "latitude": 58.215146,
    "longitude": -5.049887,
    "landrangerMaps": [
      "15"
    ],
    "explorerMaps": [
      "442E"
    ],
    "id": "3ArXxwr1",
    "name": "Quinag - Sail Gharbh"
  },
  {
    "number": 144,
    "regionNumber": "1C",
    "regionName": "Loch Lomond to Strathyre",
    "height": 808.6,
    "latitude": 56.399888,
    "longitude": -4.358071,
    "landrangerMaps": [
      "51"
    ],
    "explorerMaps": [
      "OL46N",
      "365N"
    ],
    "id": "RKjAX9mx",
    "name": "Creag Mac Ranaich"
  },
  {
    "number": 145,
    "regionNumber": "17B",
    "regionName": "Minginish and the Cuillin Hills",
    "height": 808.0,
    "latitude": 57.233105,
    "longitude": -6.092474,
    "landrangerMaps": [
      "32"
    ],
    "explorerMaps": [
      "411"
    ],
    "id": "07Yylwj5",
    "name": "Garbh-bheinn"
  },
  {
    "number": 146,
    "regionNumber": "28B",
    "regionName": "The River Tweed to the English Border",
    "height": 808.0,
    "latitude": 55.408052,
    "longitude": -3.401411,
    "landrangerMaps": [
      "78"
    ],
    "explorerMaps": [
      "330"
    ],
    "id": "kXr1QGrL",
    "name": "Hart Fell"
  },
  {
    "number": 147,
    "regionNumber": "7A",
    "regionName": "Braemar to Montrose",
    "height": 807.0,
    "latitude": 56.820186,
    "longitude": -3.351546,
    "landrangerMaps": [
      "43"
    ],
    "explorerMaps": [
      "OL52N",
      "OL53S",
      "387N",
      "388S"
    ],
    "id": "GojNwAY2",
    "name": "Monamenach"
  },
  {
    "number": 148,
    "regionNumber": "14A",
    "regionName": "Loch Maree to Loch Broom",
    "height": 807.0,
    "latitude": 57.725649,
    "longitude": -5.199021,
    "landrangerMaps": [
      "19"
    ],
    "explorerMaps": [
      "435S"
    ],
    "id": "04m8d9mL",
    "name": "Creag Rainich"
  },
  {
    "number": 149,
    "regionNumber": "2B",
    "regionName": "Glen Lyon to Glen Dochart & Loch Tay",
    "height": 806.0,
    "latitude": 56.507156,
    "longitude": -4.664648,
    "landrangerMaps": [
      "50"
    ],
    "explorerMaps": [
      "377E"
    ],
    "id": "azY9d2jn",
    "name": "Beinn nam Fuaran"
  },
  {
    "number": 150,
    "regionNumber": "2B",
    "regionName": "Glen Lyon to Glen Dochart & Loch Tay",
    "height": 806.0,
    "latitude": 56.524497,
    "longitude": -4.503808,
    "landrangerMaps": [
      "51"
    ],
    "explorerMaps": [
      "OL48W",
      "378W"
    ],
    "id": "qajgNMmk",
    "name": "Meall nan Subh"
  },
  {
    "number": 151,
    "regionNumber": "6B",
    "regionName": "Pitlochry to Braemar & Blairgowrie",
    "height": 806.0,
    "latitude": 56.83265,
    "longitude": -3.475886,
    "landrangerMaps": [
      "43"
    ],
    "explorerMaps": [
      "OL52N",
      "387N"
    ],
    "id": "A3j6d9rO",
    "name": "Ben Gulabin"
  },
  {
    "number": 152,
    "regionNumber": "9C",
    "regionName": "Loch Lochy to Loch Laggan",
    "height": 805.0,
    "latitude": 56.970146,
    "longitude": -4.803152,
    "landrangerMaps": [
      "34"
    ],
    "explorerMaps": [
      "400"
    ],
    "id": "3Pr7MEjk",
    "name": "Beinn Iaruinn"
  },
  {
    "number": 153,
    "regionNumber": "10A",
    "regionName": "Glen Shiel to Loch Hourn and Loch Quoich",
    "height": 805.0,
    "latitude": 57.148629,
    "longitude": -5.548692,
    "landrangerMaps": [
      "33"
    ],
    "explorerMaps": [
      "413S"
    ],
    "id": "1grnLJjK",
    "name": "Beinn na h-Eaglaise"
  },
  {
    "number": 154,
    "regionNumber": "10C",
    "regionName": "Loch Arkaig to Glen Moriston",
    "height": 804.0,
    "latitude": 57.002612,
    "longitude": -5.037526,
    "landrangerMaps": [
      "34"
    ],
    "explorerMaps": [
      "399"
    ],
    "id": "RVYplMY6",
    "name": "Geal Charn"
  },
  {
    "number": 155,
    "regionNumber": "21A",
    "regionName": "Tomintoul to Banff",
    "height": 804.0,
    "latitude": 57.249877,
    "longitude": -3.218483,
    "landrangerMaps": [
      "37"
    ],
    "explorerMaps": [
      "OL62W",
      "420W"
    ],
    "id": "8AjBnzj5",
    "name": "Carn Mor"
  },
  {
    "number": 156,
    "regionNumber": "5A",
    "regionName": "Loch Ericht to Glen Tromie & Glen Garry",
    "height": 803.0,
    "latitude": 56.838121,
    "longitude": -4.25515,
    "landrangerMaps": [
      "42"
    ],
    "explorerMaps": [
      "OL50",
      "393"
    ],
    "id": "PEmdoJrW",
    "name": "The Sow of Atholl [Meall an Dobharchain]"
  },
  {
    "number": 157,
    "regionNumber": "3C",
    "regionName": "Glen Etive to Glen Lochy",
    "height": 802.0,
    "latitude": 56.466716,
    "longitude": -4.756524,
    "landrangerMaps": [
      "50"
    ],
    "explorerMaps": [
      "377E"
    ],
    "id": "9KYM0Xj7",
    "name": "Beinn Bhreac-liath"
  },
  {
    "number": 158,
    "regionNumber": "16B",
    "regionName": "Durness to Loch Shin",
    "height": 801.0,
    "latitude": 58.310074,
    "longitude": -4.805668,
    "landrangerMaps": [
      "15"
    ],
    "explorerMaps": [
      "445"
    ],
    "id": "3Xrae1rD",
    "name": "Meallan Liath Coire Mhic Dhughaill"
  },
  {
    "number": 159,
    "regionNumber": "16B",
    "regionName": "Durness to Loch Shin",
    "height": 801.0,
    "latitude": 58.457428,
    "longitude": -4.828701,
    "landrangerMaps": [
      "9"
    ],
    "explorerMaps": [
      "446"
    ],
    "id": "gejbN8jK",
    "name": "Cranstackie"
  },
  {
    "number": 160,
    "regionNumber": "20C",
    "regionName": "Arran and Holy Island",
    "height": 799.0,
    "latitude": 55.639154,
    "longitude": -5.222514,
    "landrangerMaps": [
      "62",
      "69"
    ],
    "explorerMaps": [
      "361N"
    ],
    "id": "9xrkdem2",
    "name": "Cir Mhor"
  },
  {
    "number": 161,
    "regionNumber": "24B",
    "regionName": "Harris and Nearby Islands",
    "height": 799.0,
    "latitude": 57.963689,
    "longitude": -6.812548,
    "landrangerMaps": [
      "13",
      "14"
    ],
    "explorerMaps": [
      "456"
    ],
    "id": "MRmK4Xje",
    "name": "An Cliseam [Clisham]"
  },
  {
    "number": 162,
    "regionNumber": "11A",
    "regionName": "Loch Duich to Cannich",
    "height": 798.0,
    "latitude": 57.179265,
    "longitude": -5.189109,
    "landrangerMaps": [
      "33"
    ],
    "explorerMaps": [
      "414N",
      "414S"
    ],
    "id": "K2r5JGmR",
    "name": "Am Bathach"
  },
  {
    "number": 163,
    "regionNumber": "12A",
    "regionName": "Kyle of Lochalsh to Garve",
    "height": 797.0,
    "latitude": 57.391571,
    "longitude": -5.267939,
    "landrangerMaps": [
      "25"
    ],
    "explorerMaps": [
      "429"
    ],
    "id": "QgmE4Prw",
    "name": "Beinn Dronaig"
  },
  {
    "number": 164,
    "regionNumber": "27C",
    "regionName": "The Glenkens to Annandale",
    "height": 797.0,
    "latitude": 55.256044,
    "longitude": -4.212722,
    "landrangerMaps": [
      "77"
    ],
    "explorerMaps": [
      "328S"
    ],
    "id": "LvmLgxrx",
    "name": "Cairnsmore of Carsphairn"
  },
  {
    "number": 165,
    "regionNumber": "3C",
    "regionName": "Glen Etive to Glen Lochy",
    "height": 796.0,
    "latitude": 56.473069,
    "longitude": -4.909741,
    "landrangerMaps": [
      "50"
    ],
    "explorerMaps": [
      "377E"
    ],
    "id": "83mWA3Yx",
    "name": "Beinn Mhic-Mhonaidh"
  },
  {
    "number": 166,
    "regionNumber": "4A",
    "regionName": "Fort William to Loch Treig & Loch Leven",
    "height": 796.0,
    "latitude": 56.716426,
    "longitude": -5.081585,
    "landrangerMaps": [
      "41"
    ],
    "explorerMaps": [
      "384",
      "392"
    ],
    "id": "1dYlNWmN",
    "name": "Mam na Gualainn"
  },
  {
    "number": 167,
    "regionNumber": "10B",
    "regionName": "Knoydart to Glen Kingie",
    "height": 796.0,
    "latitude": 57.047637,
    "longitude": -5.643923,
    "landrangerMaps": [
      "33"
    ],
    "explorerMaps": [
      "398W",
      "413S"
    ],
    "id": "3Rr0QDmk",
    "name": "Sgurr Coire Choinnichean"
  },
  {
    "number": 168,
    "regionNumber": "10D",
    "regionName": "Mallaig to Fort William",
    "height": 796.0,
    "latitude": 56.898697,
    "longitude": -5.474509,
    "landrangerMaps": [
      "40"
    ],
    "explorerMaps": [
      "398E"
    ],
    "id": "DlrwWWrQ",
    "name": "Sgurr an Utha"
  },
  {
    "number": 169,
    "regionNumber": "10D",
    "regionName": "Mallaig to Fort William",
    "height": 796.0,
    "latitude": 56.925261,
    "longitude": -5.056843,
    "landrangerMaps": [
      "34",
      "41"
    ],
    "explorerMaps": [
      "399"
    ],
    "id": "2VjxlbjQ",
    "name": "Beinn Bhan"
  },
  {
    "number": 170,
    "regionNumber": "4A",
    "regionName": "Fort William to Loch Treig & Loch Leven",
    "height": 792.0,
    "latitude": 56.736083,
    "longitude": -4.847886,
    "landrangerMaps": [
      "41"
    ],
    "explorerMaps": [
      "392"
    ],
    "id": "ZGjObGmy",
    "name": "Glas Bheinn"
  },
  {
    "number": 171,
    "regionNumber": "8B",
    "regionName": "Cairngorms",
    "height": 792.0,
    "latitude": 57.190245,
    "longitude": -3.279515,
    "landrangerMaps": [
      "36"
    ],
    "explorerMaps": [
      "OL58N",
      "404N"
    ],
    "id": "1Vj2RQj2",
    "name": "Carn Ealasaid"
  },
  {
    "number": 172,
    "regionNumber": "13B",
    "regionName": "Applecross to Achnasheen",
    "height": 792.0,
    "latitude": 57.412544,
    "longitude": -5.670353,
    "landrangerMaps": [
      "24"
    ],
    "explorerMaps": [
      "428S"
    ],
    "id": "1Xr3zXY8",
    "name": "Sgurr a' Chaorachain"
  },
  {
    "number": 173,
    "regionNumber": "14A",
    "regionName": "Loch Maree to Loch Broom",
    "height": 792.0,
    "latitude": 57.727548,
    "longitude": -5.477608,
    "landrangerMaps": [
      "19"
    ],
    "explorerMaps": [
      "433",
      "434",
      "435N"
    ],
    "id": "Z1jPblr2",
    "name": "Beinn Airigh Charr"
  },
  {
    "number": 174,
    "regionNumber": "16E",
    "regionName": "Scourie to Lairg",
    "height": 792.0,
    "latitude": 58.222023,
    "longitude": -4.861613,
    "landrangerMaps": [
      "15"
    ],
    "explorerMaps": [
      "442E"
    ],
    "id": "NVmV4RYw",
    "name": "Beinn Leoid"
  },
  {
    "number": 175,
    "regionNumber": "1A",
    "regionName": "Loch Tay to Perth",
    "height": 789.0,
    "latitude": 56.454346,
    "longitude": -3.934667,
    "landrangerMaps": [
      "52"
    ],
    "explorerMaps": [
      "OL47W",
      "368W",
      "379W"
    ],
    "id": "aBjZXMrM",
    "name": "Auchnafree Hill"
  },
  {
    "number": 176,
    "regionNumber": "10A",
    "regionName": "Glen Shiel to Loch Hourn and Loch Quoich",
    "height": 789.0,
    "latitude": 57.122035,
    "longitude": -5.089277,
    "landrangerMaps": [
      "34"
    ],
    "explorerMaps": [
      "414S"
    ],
    "id": "b1mDaQj8",
    "name": "Druim nan Cnamh [Beinn Loinne]"
  },
  {
    "number": 177,
    "regionNumber": "10C",
    "regionName": "Loch Arkaig to Glen Moriston",
    "height": 789.0,
    "latitude": 57.127923,
    "longitude": -4.900431,
    "landrangerMaps": [
      "34"
    ],
    "explorerMaps": [
      "415"
    ],
    "id": "AdrJdWjW",
    "name": "Meall Dubh"
  },
  {
    "number": 178,
    "regionNumber": "2A",
    "regionName": "Loch Rannoch to Glen Lyon",
    "height": 787.0,
    "latitude": 56.665895,
    "longitude": -3.947405,
    "landrangerMaps": [
      "52"
    ],
    "explorerMaps": [
      "OL49E",
      "386E"
    ],
    "id": "D6reabry",
    "name": "Meall Tairneachan"
  },
  {
    "number": 179,
    "regionNumber": "15B",
    "regionName": "Loch Vaich to Moray Firth",
    "height": 787.0,
    "latitude": 57.780902,
    "longitude": -4.742992,
    "landrangerMaps": [
      "20"
    ],
    "explorerMaps": [
      "437N"
    ],
    "id": "MEmqJDjJ",
    "name": "Beinn a' Chaisteil"
  },
  {
    "number": 180,
    "regionNumber": "16B",
    "regionName": "Durness to Loch Shin",
    "height": 787.0,
    "latitude": 58.371062,
    "longitude": -4.903644,
    "landrangerMaps": [
      "9"
    ],
    "explorerMaps": [
      "445"
    ],
    "id": "nNrG4Nm4",
    "name": "Arkle"
  },
  {
    "number": 181,
    "regionNumber": "19C",
    "regionName": "Loch Fyne to Bute and the Firth of Clyde",
    "height": 787.0,
    "latitude": 56.187751,
    "longitude": -4.828551,
    "landrangerMaps": [
      "56"
    ],
    "explorerMaps": [
      "OL37N",
      "OL39S",
      "363N",
      "364S"
    ],
    "id": "l8rvLejG",
    "name": "The Brack"
  },
  {
    "number": 182,
    "regionNumber": "18B",
    "regionName": "Sunart and Ardgour",
    "height": 786.0,
    "latitude": 56.772398,
    "longitude": -5.460755,
    "landrangerMaps": [
      "40"
    ],
    "explorerMaps": [
      "391"
    ],
    "id": "RVY4J4mJ",
    "name": "Carn na Nathrach"
  },
  {
    "number": 183,
    "regionNumber": "10B",
    "regionName": "Knoydart to Glen Kingie",
    "height": 785.0,
    "latitude": 57.098269,
    "longitude": -5.640339,
    "landrangerMaps": [
      "33"
    ],
    "explorerMaps": [
      "413S"
    ],
    "id": "EVjzwLYb",
    "name": "Beinn na Caillich"
  },
  {
    "number": 184,
    "regionNumber": "20A",
    "regionName": "Jura, Scarba and Colonsay",
    "height": 785.0,
    "latitude": 55.902396,
    "longitude": -6.004137,
    "landrangerMaps": [
      "60",
      "61"
    ],
    "explorerMaps": [
      "355S"
    ],
    "id": "JEjQZDYa",
    "name": "Beinn an Oir"
  },
  {
    "number": 185,
    "regionNumber": "18A",
    "regionName": "Moidart and Ardnamurchan",
    "height": 783.0,
    "latitude": 56.849855,
    "longitude": -5.563058,
    "landrangerMaps": [
      "40"
    ],
    "explorerMaps": [
      "391"
    ],
    "id": "p5mobBr4",
    "name": "Beinn Mhic Cedidh"
  },
  {
    "number": 186,
    "regionNumber": "2A",
    "regionName": "Loch Rannoch to Glen Lyon",
    "height": 782.3,
    "latitude": 56.675063,
    "longitude": -3.894208,
    "landrangerMaps": [
      "52"
    ],
    "explorerMaps": [
      "OL49E",
      "386E"
    ],
    "id": "9RmRZXm8",
    "name": "Farragon Hill"
  },
  {
    "number": 187,
    "regionNumber": "13B",
    "regionName": "Applecross to Achnasheen",
    "height": 782.0,
    "latitude": 57.54691,
    "longitude": -5.378786,
    "landrangerMaps": [
      "25"
    ],
    "explorerMaps": [
      "429",
      "433"
    ],
    "id": "3ArX4wr1",
    "name": "Sgurr Dubh"
  },
  {
    "number": 188,
    "regionNumber": "17D",
    "regionName": "Canna, Rhum and Eigg",
    "height": 781.0,
    "latitude": 56.96563,
    "longitude": -6.314678,
    "landrangerMaps": [
      "39"
    ],
    "explorerMaps": [
      "397"
    ],
    "id": "RKjAo9rx",
    "name": "Ainshval"
  },
  {
    "number": 189,
    "regionNumber": "21A",
    "regionName": "Tomintoul to Banff",
    "height": 781.0,
    "latitude": 57.344617,
    "longitude": -3.196412,
    "landrangerMaps": [
      "37"
    ],
    "explorerMaps": [
      "OL62W",
      "420W"
    ],
    "id": "07Yy0wj5",
    "name": "Corryhabbie Hill"
  },
  {
    "number": 190,
    "regionNumber": "10A",
    "regionName": "Glen Shiel to Loch Hourn and Loch Quoich",
    "height": 779.0,
    "latitude": 57.19958,
    "longitude": -5.448675,
    "landrangerMaps": [
      "33"
    ],
    "explorerMaps": [
      "413N"
    ],
    "id": "kXr1JGmL",
    "name": "Sgurr Mhic Bharraich"
  },
  {
    "number": 191,
    "regionNumber": "19C",
    "regionName": "Loch Fyne to Bute and the Firth of Clyde",
    "height": 779.0,
    "latitude": 56.141833,
    "longitude": -4.971465,
    "landrangerMaps": [
      "56"
    ],
    "explorerMaps": [
      "OL37N",
      "363N"
    ],
    "id": "GojNZAj2",
    "name": "Beinn Bheula"
  },
  {
    "number": 192,
    "regionNumber": "2B",
    "regionName": "Glen Lyon to Glen Dochart & Loch Tay",
    "height": 778.9,
    "latitude": 56.562874,
    "longitude": -4.302495,
    "landrangerMaps": [
      "51"
    ],
    "explorerMaps": [
      "OL48E",
      "378E"
    ],
    "id": "04m8a9jL",
    "name": "Meall nam Maigheach"
  },
  {
    "number": 193,
    "regionNumber": "7B",
    "regionName": "Braemar to Montrose",
    "height": 778.0,
    "latitude": 56.949266,
    "longitude": -2.741962,
    "landrangerMaps": [
      "44"
    ],
    "explorerMaps": [
      "OL54",
      "395"
    ],
    "id": "azY9o2mn",
    "name": "Mount Battock"
  },
  {
    "number": 194,
    "regionNumber": "5A",
    "regionName": "Loch Ericht to Glen Tromie & Glen Garry",
    "height": 777.1,
    "latitude": 56.804039,
    "longitude": -4.227991,
    "landrangerMaps": [
      "42"
    ],
    "explorerMaps": [
      "OL49W",
      "OL51W",
      "386W",
      "394W"
    ],
    "id": "qajgeMrk",
    "name": "Meall na Leitreach"
  },
  {
    "number": 195,
    "regionNumber": "16B",
    "regionName": "Durness to Loch Shin",
    "height": 777.0,
    "latitude": 58.361671,
    "longitude": -4.817612,
    "landrangerMaps": [
      "9"
    ],
    "explorerMaps": [
      "445"
    ],
    "id": "A3j6J9jO",
    "name": "Meall Horn"
  },
  {
    "number": 196,
    "regionNumber": "16E",
    "regionName": "Scourie to Lairg",
    "height": 776.0,
    "latitude": 58.225604,
    "longitude": -5.069542,
    "landrangerMaps": [
      "15"
    ],
    "explorerMaps": [
      "442W"
    ],
    "id": "3Pr7JEYk",
    "name": "Quinag - Sail Gorm [Sail Ghorm]"
  },
  {
    "number": 197,
    "regionNumber": "16E",
    "regionName": "Scourie to Lairg",
    "height": 776.0,
    "latitude": 58.192672,
    "longitude": -4.970555,
    "landrangerMaps": [
      "15"
    ],
    "explorerMaps": [
      "442E"
    ],
    "id": "1grnNJrK",
    "name": "Glas Bheinn"
  },
  {
    "number": 198,
    "regionNumber": "17B",
    "regionName": "Minginish and the Cuillin Hills",
    "height": 775.0,
    "latitude": 57.292709,
    "longitude": -6.128399,
    "landrangerMaps": [
      "32"
    ],
    "explorerMaps": [
      "411"
    ],
    "id": "RVYpQMr6",
    "name": "Glamaig - Sgurr Mhairi"
  },
  {
    "number": 199,
    "regionNumber": "18B",
    "regionName": "Sunart and Ardgour",
    "height": 775.0,
    "latitude": 56.825832,
    "longitude": -5.45052,
    "landrangerMaps": [
      "40"
    ],
    "explorerMaps": [
      "391"
    ],
    "id": "8AjB4zr5",
    "name": "Sgorr Craobh a' Chaorainn"
  },
  {
    "number": 200,
    "regionNumber": "27B",
    "regionName": "Carrick and Galloway",
    "height": 774.1,
    "latitude": 55.183647,
    "longitude": -4.50248,
    "landrangerMaps": [
      "77"
    ],
    "explorerMaps": [
      "318"
    ],
    "id": "PEmd8JmW",
    "name": "Shalloch on Minnoch"
  },
  {
    "number": 201,
    "regionNumber": "10A",
    "regionName": "Glen Shiel to Loch Hourn and Loch Quoich",
    "height": 774.0,
    "latitude": 57.150469,
    "longitude": -5.520434,
    "landrangerMaps": [
      "33"
    ],
    "explorerMaps": [
      "413S"
    ],
    "id": "9KYMeXY7",
    "name": "Beinn nan Caorach"
  },
  {
    "number": 202,
    "regionNumber": "10D",
    "regionName": "Mallaig to Fort William",
    "height": 774.0,
    "latitude": 56.918009,
    "longitude": -5.239026,
    "landrangerMaps": [
      "41"
    ],
    "explorerMaps": [
      "399"
    ],
    "id": "3XraA1rD",
    "name": "Meall a' Phubuill"
  },
  {
    "number": 203,
    "regionNumber": "16B",
    "regionName": "Durness to Loch Shin",
    "height": 773.0,
    "latitude": 58.473042,
    "longitude": -4.810504,
    "landrangerMaps": [
      "9"
    ],
    "explorerMaps": [
      "446"
    ],
    "id": "gejbA8mK",
    "name": "Beinn Spionnaidh"
  },
  {
    "number": 204,
    "regionNumber": "3B",
    "regionName": "Loch Linnhe to Loch Etive",
    "height": 772.0,
    "latitude": 56.628471,
    "longitude": -5.107497,
    "landrangerMaps": [
      "41"
    ],
    "explorerMaps": [
      "384"
    ],
    "id": "9xrk8em2",
    "name": "Meall Lighiche"
  },
  {
    "number": 205,
    "regionNumber": "1C",
    "regionName": "Loch Lomond to Strathyre",
    "height": 771.0,
    "latitude": 56.31467,
    "longitude": -4.468143,
    "landrangerMaps": [
      "57"
    ],
    "explorerMaps": [
      "OL46N",
      "365N"
    ],
    "id": "MRmKZXre",
    "name": "Beinn Stacach [Ceann na Baintighearna] [Stob Fear-tomhais] [Beinn Stacath]"
  },
  {
    "number": 206,
    "regionNumber": "18B",
    "regionName": "Sunart and Ardgour",
    "height": 771.0,
    "latitude": 56.803245,
    "longitude": -5.249612,
    "landrangerMaps": [
      "41"
    ],
    "explorerMaps": [
      "391"
    ],
    "id": "K2r5lGYR",
    "name": "Stob Coire a' Chearcaill"
  },
  {
    "number": 207,
    "regionNumber": "18B",
    "regionName": "Sunart and Ardgour",
    "height": 770.0,
    "latitude": 56.797506,
    "longitude": -5.482126,
    "landrangerMaps": [
      "40"
    ],
    "explorerMaps": [
      "391"
    ],
    "id": "QgmEBPjw",
    "name": "Druim Tarsuinn [Stob a' Bhealach an Sgriodain]"
  },
  {
    "number": 208,
    "regionNumber": "6A",
    "regionName": "Glen Tromie to Glen Tilt",
    "height": 769.0,
    "latitude": 56.992801,
    "longitude": -4.015203,
    "landrangerMaps": [
      "35"
    ],
    "explorerMaps": [
      "OL56",
      "402"
    ],
    "id": "LvmLBxYx",
    "name": "Meallach Mhor"
  },
  {
    "number": 209,
    "regionNumber": "16F",
    "regionName": "Lochinver to Ullapool",
    "height": 769.0,
    "latitude": 58.029553,
    "longitude": -5.151012,
    "landrangerMaps": [
      "15"
    ],
    "explorerMaps": [
      "439E"
    ],
    "id": "83mWN3rx",
    "name": "Cul Beag"
  },
  {
    "number": 210,
    "regionNumber": "1C",
    "regionName": "Loch Lomond to Strathyre",
    "height": 768.7,
    "latitude": 56.281081,
    "longitude": -4.659947,
    "landrangerMaps": [
      "50",
      "56"
    ],
    "explorerMaps": [
      "OL39N",
      "364N"
    ],
    "id": "1dYl9WrN",
    "name": "Beinn a' Choin"
  },
  {
    "number": 211,
    "regionNumber": "9B",
    "regionName": "Glen Albyn and the Monadh Liath",
    "height": 768.0,
    "latitude": 57.015739,
    "longitude": -4.707348,
    "landrangerMaps": [
      "34"
    ],
    "explorerMaps": [
      "400"
    ],
    "id": "3Rr0KDYk",
    "name": "Carn Dearg"
  },
  {
    "number": 212,
    "regionNumber": "14A",
    "regionName": "Loch Maree to Loch Broom",
    "height": 767.0,
    "latitude": 57.844449,
    "longitude": -5.315836,
    "landrangerMaps": [
      "19"
    ],
    "explorerMaps": [
      "435N"
    ],
    "id": "DlrwXWmQ",
    "name": "Sail Mhor"
  },
  {
    "number": 213,
    "regionNumber": "14B",
    "regionName": "The Fannaichs",
    "height": 766.0,
    "latitude": 57.698655,
    "longitude": -4.886379,
    "landrangerMaps": [
      "20"
    ],
    "explorerMaps": [
      "436S"
    ],
    "id": "2VjxbbrQ",
    "name": "Beinn Liath Mhor a' Ghiubhais Li [Beinn Liath Mhor a' Ghiuthais]"
  },
  {
    "number": 214,
    "regionNumber": "17E",
    "regionName": "Mull and Nearby Islands",
    "height": 766.0,
    "latitude": 56.460438,
    "longitude": -5.779508,
    "landrangerMaps": [
      "49"
    ],
    "explorerMaps": [
      "375E"
    ],
    "id": "ZGjOqGry",
    "name": "Dun da Ghaoithe"
  },
  {
    "number": 215,
    "regionNumber": "18C",
    "regionName": "Morvern and Kingairloch",
    "height": 766.0,
    "latitude": 56.649484,
    "longitude": -5.503071,
    "landrangerMaps": [
      "49"
    ],
    "explorerMaps": [
      "376",
      "383E"
    ],
    "id": "1Vj2EQm2",
    "name": "Fuar Bheinn"
  },
  {
    "number": 216,
    "regionNumber": "10D",
    "regionName": "Mallaig to Fort William",
    "height": 765.0,
    "latitude": 56.92688,
    "longitude": -5.32867,
    "landrangerMaps": [
      "40"
    ],
    "explorerMaps": [
      "398E"
    ],
    "id": "1Xr3LXm8",
    "name": "Braigh nan Uamhachan"
  },
  {
    "number": 217,
    "regionNumber": "16B",
    "regionName": "Durness to Loch Shin",
    "height": 764.2,
    "latitude": 58.404926,
    "longitude": -4.435027,
    "landrangerMaps": [
      "10"
    ],
    "explorerMaps": [
      "447S"
    ],
    "id": "Z1jPVlr2",
    "name": "Ben Loyal - An Caisteal"
  },
  {
    "number": 218,
    "regionNumber": "1D",
    "regionName": "Inveraray to Crianlarich",
    "height": 764.0,
    "latitude": 56.333881,
    "longitude": -4.798858,
    "landrangerMaps": [
      "50",
      "56"
    ],
    "explorerMaps": [
      "OL39N",
      "364N"
    ],
    "id": "K2r5lnYR",
    "name": "Meall an Fhudair"
  },
  {
    "number": 219,
    "regionNumber": "16E",
    "regionName": "Scourie to Lairg",
    "height": 764.0,
    "latitude": 58.201879,
    "longitude": -5.05447,
    "landrangerMaps": [
      "15"
    ],
    "explorerMaps": [
      "442E"
    ],
    "id": "QgmEByjw",
    "name": "Quinag - Spidean Coinich"
  },
  {
    "number": 220,
    "regionNumber": "19C",
    "regionName": "Loch Fyne to Bute and the Firth of Clyde",
    "height": 763.5,
    "latitude": 56.16661,
    "longitude": -4.846554,
    "landrangerMaps": [
      "56"
    ],
    "explorerMaps": [
      "OL37N",
      "363N"
    ],
    "id": "LvmLBzYx",
    "name": "Cnoc Coinnich"
  },
  {
    "number": 221,
    "regionNumber": "15B",
    "regionName": "Loch Vaich to Moray Firth",
    "height": 763.0,
    "latitude": 57.642775,
    "longitude": -4.632641,
    "landrangerMaps": [
      "20"
    ],
    "explorerMaps": [
      "437S"
    ],
    "id": "83mWNerx",
    "name": "Little Wyvis"
  },
  {
    "number": 222,
    "regionNumber": "18B",
    "regionName": "Sunart and Ardgour",
    "height": 762.4,
    "latitude": 56.742777,
    "longitude": -5.407524,
    "landrangerMaps": [
      "40"
    ],
    "explorerMaps": [
      "391"
    ],
    "id": "1dYl9LrN",
    "name": "Beinn na h-Uamha"
  }
]